$GPRMC,092211.00,A,5759.09700,N,01144.34344,E,5.257,28.27,200715,,,A*58
dCBuaWJoIHByYWVzZW50IHRyaXN0aXF1ZS4KCgBJbnRlcmR1bSBwb3N1ZXJlIGxvcmVtIGlwc3Vt

Y3R1cyBzaXQgYW1ldCBlc3QuCgoASW1wZXJkaWV0IGR1aSBhY2N1bXNhbiBzaXQgYW1ldCBudWxs

$IIRMC,092210,A,5759.095,N,01144.342,E,5.5,31.1,,0.0,E,A*30
IGRvbmVjIGV0LgoKAFRlbXB1cyBxdWFtIHBlbGxlbnRlc3F1ZSBuZWMgbmFtIGFsaXF1YW0gc2Vt

YXJldHJhIG1hc3NhIG1hc3NhIHVsdHJpY2llcyBtaSBxdWlzLgoKAFNlZCByaXN1cyB1bHRyaWNp

$IIRMA,A,5759.095,N,01144.342,E,,,5.5,31.1,0.0,E,A*3A
c2VkIHJpc3VzIHByZXRpdW0gcXVhbSB2dWxwdXRhdGUuCgoAUGVsbGVudGVzcXVlIHB1bHZpbmFy

IGFkaXBpc2NpbmcgZWxpdCB1dCBhbGlxdWFtIHB1cnVzIHNpdCBhbWV0LgoKAE1vcmJpIGxlbyB1

$IIMTW,16.8,C*1C
aXMgY29udmFsbGlzIHRlbGx1cyBpZCBpbnRlcmR1bS4KCgBFZ2V0IHZlbGl0IGFsaXF1ZXQgc2Fn

IHB1cnVzIG5vbiBlbmltLgoKAEJsYW5kaXQgdHVycGlzIGN1cnN1cyBpbiBoYWMgaGFiaXRhc3Nl

$IIVLW,2354.92,N,2338.533,N*79
bmVjIGFjIG9kaW8uCgoARW5pbSBldSB0dXJwaXMgZWdlc3RhcyBwcmV0aXVtIGFlbmVhbiBwaGFy

bWV0IGRpY3R1bSBzaXQgYW1ldCBqdXN0byBkb25lYyBlbmltIGRpYW0uCgoATm9uIGNvbnNlY3Rl

$IIVHW,,T,25.0,M,5.9,N,10.9,K*78
ZSBlbGVpZmVuZCBkb25lYyBwcmV0aXVtIHZ1bHB1dGF0ZS4KCgBBdCBlbGVtZW50dW0gZXUgZmFj

bmlzc2ltIHN1c3BlbmRpc3NlLgoKAER1aSB2aXZhbXVzIGFyY3UgZmVsaXMgYmliZW5kdW0gdXQg

!AIVDM,1,1,,B,13u=gHP3CWPlvs2Q8sHW:5fD0h6a,0*1B
b2xsaWNpdHVkaW4gYWMgb3JjaSBwaGFzZWxsdXMgZWdlc3RhcyB0ZWxsdXMgcnV0cnVtLgoKAEZl

bWFlY2VuYXMgdm9sdXRwYXQgYmxhbmRpdCBhbGlxdWFtIGV0aWFtIGVyYXQgdmVsaXQuCgoAQWxp

$IIHDG,25.0,0,E,0.0,E*60
c2VkIGRvIGVpdXNtb2QgdGVtcG9yIGluY2lkaWR1bnQgdXQgbGFib3JlIGV0IGRvbG9yZSBtYWdu

IHVsbGFtY29ycGVyIGVnZXQgbnVsbGEgZmFjaWxpc2kgZXRpYW0gZGlnbmlzc2ltIGRpYW0gcXVp

$IIDPT,14.8,0.4,100.0*7A
IHRlbGx1cyBvcmNpIGFjLgoKAENvbnNlY3RldHVyIGFkaXBpc2NpbmcgZWxpdCBkdWlzIHRyaXN0

ZXNxdWUgZGlnbmlzc2ltLgoKAE1hc3NhIHRlbXBvciBuZWMgZmV1Z2lhdCBuaXNsIHByZXRpdW0g

!AIVDM,1,1,,A,13bvpB001f0lPAFQ7HKptoBF00Sa,0*66
IGhhYml0YW50IG1vcmJpIHRyaXN0aXF1ZSBzZW5lY3R1cy4KCgBNYXR0aXMgYWxpcXVhbSBmYXVj

TG9yZW0gaXBzdW0gZG9sb3Igc2l0IGFtZXQsIGNvbnNlY3RldHVyIGFkaXBpc2NpbmcgZWxpdCwg

$GPGBS,092211.00,1.9,1.5,3.2,,,,*45
Y3Vtc2FuIGxhY3VzIHZlbCBmYWNpbGlzaXMgdm9sdXRwYXQuCgoAT3JuYXJlIHN1c3BlbmRpc3Nl

bmNpZHVudCBhcmN1IG5vbiBzb2RhbGVzLgoKAEV1IGZhY2lsaXNpcyBzZWQgb2RpbyBtb3JiaSBx

$GPRMC,092212,A,5759.097,N,01144.345,E,005.5,030.5,200715,000.0,E*79
cm5hIGlkLgoKAE5lYyBkdWkgbnVuYyBtYXR0aXMgZW5pbSB1dCB0ZWxsdXMgZWxlbWVudHVtIHNh

ZSB2aXZlcnJhLgoKAEVsaXQgZHVpcyB0cmlzdGlxdWUgc29sbGljaXR1ZGluIG5pYmggc2l0IGFt

$GPRMB,A,,,,,,,,,,,,V*71
ZXRpdW0gYWVuZWFuIHBoYXJldHJhIG1hZ25hIGFjIHBsYWNlcmF0IHZlc3RpYnVsdW0uCgoARXN0

YWMgdHVycGlzIGVnZXN0YXMgc2VkIHRlbXB1cyB1cm5hLgoKAE9kaW8gdXQgc2VtIG51bGxhIHBo

!AIVDO,1,1,,,B3uBrjP0=0=Kjm8BoS`AcwUUwP06,0*75
cyBmZXVnaWF0IGluIGFudGUuCgoATmVjIGZldWdpYXQgaW4gZmVybWVudHVtIHBvc3VlcmUgdXJu

ZSB2aXZlcnJhLgoKAEVsaXQgZHVpcyB0cmlzdGlxdWUgc29sbGljaXR1ZGluIG5pYmggc2l0IGFt

$IIRMC,092210,A,5759.096,N,01144.343,E,5.5,31.1,,0.0,E,A*32
ZW50dW0gbGFjaW5pYSBxdWlzLgoKAFF1aXMgY29tbW9kbyBvZGlvIGFlbmVhbiBzZWQgYWRpcGlz

VmVsaXQgZXVpc21vZCBpbiBwZWxsZW50ZXNxdWUgbWFzc2EgcGxhY2VyYXQuCgoASW4gZXUgbWkg

$IIRMA,A,5759.096,N,01144.343,E,,,5.5,31.1,0.0,E,A*38
bmVjdHVzLgoKAFNpdCBhbWV0IGNvbnNlY3RldHVyIGFkaXBpc2NpbmcgZWxpdC4KCgBBbnRlIGlu

ZSBjb252YWxsaXMgYSBjcmFzIHNlbXBlciBhdWN0b3IgbmVxdWUuCgoARXRpYW0gZGlnbmlzc2lt

$IIMTW,16.8,C*1C
ZW8gaW4gdml0YWUuCgoAT2RpbyBmYWNpbGlzaXMgbWF1cmlzIHNpdCBhbWV0IG1hc3NhIHZpdGFl

bSBmYXVjaWJ1cyB2aXRhZSBhbGlxdWV0LgoKAFNlZCB2ZWxpdCBkaWduaXNzaW0gc29kYWxlcyB1

$IIVLW,2354.92,N,2338.536,N*7C
IGNvbmd1ZSBuaXNpIHZpdGFlIHN1c2NpcGl0IHRlbGx1cyBtYXVyaXMuCgoATmVjIHVsbGFtY29y

dGlxdWUgc2VuZWN0dXMgZXQgbmV0dXMgZXQgbWFsZXN1YWRhLgoKAFRlbXBvciBjb21tb2RvIHVs

$IIVHW,,T,25.0,M,5.9,N,10.9,K*78
YWdpdHRpcyBuaXNsIHJob25jdXMgbWF0dGlzIHJob25jdXMgdXJuYSBuZXF1ZS4KCgBBbWV0IHJp

bGlzIGVnZXQgbnVuYyBsb2JvcnRpcyBtYXR0aXMuCgoAQWMgb3JjaSBwaGFzZWxsdXMgZWdlc3Rh

$IIHDG,25.0,0,E,0.0,E*60
YSBlbmltIG5lYyBkdWkgbnVuYy4KCgBFbGl0IHNjZWxlcmlzcXVlIG1hdXJpcyBwZWxsZW50ZXNx

ZXQgYWxpcXVldCBuaWJoIHByYWVzZW50LgoKAE51bmMgbWF0dGlzIGVuaW0gdXQgdGVsbHVzIGVs

!AIVDM,1,1,,A,802R5Ph0GhENJAb8wnREgq>lFR06EuOwgwl?wnSwe7wwwwwwsAwwnSomwvwt,0*75
IHZ1bHB1dGF0ZSBtaSBzaXQgYW1ldCBtYXVyaXMuCgoAQ29uZGltZW50dW0gdml0YWUgc2FwaWVu

Y3RvciB1cm5hIG51bmMuCgoARWdlc3RhcyBwcmV0aXVtIGFlbmVhbiBwaGFyZXRyYSBtYWduYS4K

$GPGGA,092212,5759.097,N,01144.345,E,1,06,1.9,3.5,M,39.4,M,,*4C
dCBhbWV0IG5pc2wgc3VzY2lwaXQgYWRpcGlzY2luZy4KCgBOdW5jIGNvbmd1ZSBuaXNpIHZpdGFl

bS4KCgBUaW5jaWR1bnQgdG9ydG9yIGFsaXF1YW0gbnVsbGEgZmFjaWxpc2kgY3Jhcy4KCgBDb252

$GPGSA,A,3,02,,12,14,,24,25,32,,,,,2.7,1.9,2.0*39
IGEuCgoARXQgdG9ydG9yIGNvbnNlcXVhdCBpZCBwb3J0YSBuaWJoIHZlbmVuYXRpcy4KCgBBbGlx

aXMgc2VkLgoKAFF1aXMgcmlzdXMgc2VkIHZ1bHB1dGF0ZSBvZGlvIHV0IGVuaW0uCgoARmVsaXMg

$GPGSV,2,1,08,02,21,120,42,06,29,080,00,12,86,124,52,14,41,275,46*7C
aXNxdWUuCgoAUnV0cnVtIHF1aXNxdWUgbm9uIHRlbGx1cyBvcmNpIGFjIGF1Y3Rvci4KCgBTY2Vs

cmlzdXMgbnVsbGFtIGVnZXQgZmVsaXMuCgoAUHVsdmluYXIgc2FwaWVuIGV0IGxpZ3VsYSB1bGxh

$IIDPT,15.1,0.4,100.0*72
Y3VtIHNvY2lpcyBuYXRvcXVlIHBlbmF0aWJ1cyBldCBtYWduaXMgZGlzIHBhcnR1cmllbnQuCgoA

dCBudWxsYSBmYWNpbGlzaSBldGlhbS4KCgBDdXJzdXMgZWdldCBudW5jIHNjZWxlcmlzcXVlIHZp

!AIVDM,1,1,,B,402R3cQuur9F;0o<l<Q0lDi00<5@,0*2C
dGlidWx1bSByaG9uY3VzIGVzdCBwZWxsZW50ZXNxdWUgZWxpdCB1bGxhbWNvcnBlci4KCgBTZWQg

b2RpbyBtb3JiaSBxdWlzIGNvbW1vZG8gb2Rpby4KCgBOZWMgdWxsYW1jb3JwZXIgc2l0IGFtZXQg

!AIVDM,1,1,,B,D02R3d@6dNfp00O6D2,4*27
ZXRpdW0gcXVhbSB2dWxwdXRhdGUgZGlnbmlzc2ltIHN1c3BlbmRpc3NlIGluIGVzdC4KCgBOdW5j

c3F1ZSBzYWdpdHRpcyBwdXJ1cyBzaXQgYW1ldCB2b2x1dHBhdCBjb25zZXF1YXQgbWF1cmlzLgoK

$GPGSV,2,2,08,17,13,044,00,24,45,150,46,25,49,259,48,32,10,328,47*76
dmVycmEgbWF1cmlzLgoKAFNjZWxlcmlzcXVlIG1hdXJpcyBwZWxsZW50ZXNxdWUgcHVsdmluYXIg

AEFsaXF1ZXQgc2FnaXR0aXMgaWQgY29uc2VjdGV0dXIgcHVydXMgdXQuCgoAQWxpcXVhbSBzZW0g

$PGRME,19.1,M,19.8,M,27.5,M*17
IGRvbmVjIHVsdHJpY2VzIHRpbmNpZHVudCBhcmN1IG5vbiBzb2RhbGVzIG5lcXVlLgoKAEFlbmVh

ZWMgc2FnaXR0aXMgYWxpcXVhbSBtYWxlc3VhZGEgYmliZW5kdW0uCgoATWF1cmlzIHJob25jdXMg

$GPGLL,5759.098,N,01144.346,E,092212,A*2E
IGNyYXMuCgoARnJpbmdpbGxhIGVzdCB1bGxhbWNvcnBlciBlZ2V0IG51bGxhIGZhY2lsaXNpIGV0

dWUgcGVuYXRpYnVzLgoKVmVoaWN1bGEgaXBzdW0gYSBhcmN1IGN1cnN1cyB2aXRhZSBjb25ndWUg

$PGRMZ,12,f,3*28
IGluIG9ybmFyZSBxdWFtIHZpdmVycmEgb3JjaS4KCgBOZXR1cyBldCBtYWxlc3VhZGEgZmFtZXMg

ZXQgY29tbW9kby4KCgBUaW5jaWR1bnQgYXJjdSBub24gc29kYWxlcyBuZXF1ZSBzb2RhbGVzIHV0

$PGRMM,WGS 84*06
ZSBlbGVtZW50dW0gY3VyYWJpdHVyLgoKAElwc3VtIGZhdWNpYnVzIHZpdGFlIGFsaXF1ZXQgbmVj

IGRvbmVjIHByZXRpdW0uCgoAUXVhbSB2dWxwdXRhdGUgZGlnbmlzc2ltIHN1c3BlbmRpc3NlIGlu

$GPBOD,,T,,M,,*47
dHJpY2VzIG5lcXVlIG9ybmFyZSBhZW5lYW4gZXVpc21vZCBlbGVtZW50dW0gbmlzaS4KCgBTZWQg

YWVuZWFuIHZlbCBlbGl0IHNjZWxlcmlzcXVlLgoKAEVnZXN0YXMgc2VkIHNlZCByaXN1cyBwcmV0

$IIRMC,092212,A,5759.097,N,01144.345,E,5.5,30.5,,0.0,E,A*32
dG9yLgoKAEVsZW1lbnR1bSBuaXNpIHF1aXMgZWxlaWZlbmQgcXVhbSBhZGlwaXNjaW5nIHZpdGFl

cmEgbmliaCBjcmFzIHB1bHZpbmFyIG1hdHRpcyBudW5jLgoKAEhhYml0YXNzZSBwbGF0ZWEgZGlj

$IIRMA,A,5759.097,N,01144.345,E,,,5.5,30.5,0.0,E,A*3A
ZmF1Y2lidXMgYSBwZWxsZW50ZXNxdWUgc2l0LgoKAEFsaXF1YW0gcHVydXMgc2l0IGFtZXQgbHVj

IG5lcXVlIGVnZXN0YXMgY29uZ3VlIHF1aXNxdWUuCgpNYWVjZW5hcyB1bHRyaWNpZXMgbWkgZWdl

$IIMTW,16.8,C*1C
Z2l0dGlzLgoKAFVsdHJpY2llcyB0cmlzdGlxdWUgbnVsbGEgYWxpcXVldCBlbmltIHRvcnRvciBh

ZW50ZXNxdWUgaGFiaXRhbnQgbW9yYmkgdHJpc3RpcXVlIHNlbmVjdHVzIGV0IG5ldHVzIGV0LgoK

$IIVLW,2354.921,N,2338.537,N*4C
ZW5hcyBhY2N1bXNhbi4KCgBRdWFtIHBlbGxlbnRlc3F1ZSBuZWMgbmFtIGFsaXF1YW0gc2VtIGV0

cyB1dCBldGlhbSBzaXQgYW1ldCBuaXNsLgoKAEhlbmRyZXJpdCBncmF2aWRhIHJ1dHJ1bSBxdWlz

$GPRTE,1,1,c,0*07
ZGlhbSBxdWFtLgoKAERvbG9yIG1vcmJpIG5vbiBhcmN1IHJpc3VzIHF1aXMgdmFyaXVzLgoKAEV0

aXRhZSBhdWN0b3IuCgoAVGVtcHVzIHF1YW0gcGVsbGVudGVzcXVlIG5lYyBuYW0gYWxpcXVhbSBz

$IIVHW,,T,23.0,M,5.8,N,10.8,K*7E
dHVtIHNpdC4KCgBBYyBwbGFjZXJhdCB2ZXN0aWJ1bHVtIGxlY3R1cyBtYXVyaXMgdWx0cmljZXMu

YXJldHJhIG1hc3NhIG1hc3NhIHVsdHJpY2llcyBtaSBxdWlzLgoKAFNlZCByaXN1cyB1bHRyaWNp

$IIHDG,23.0,0,E,0.0,E*66
c2VkLgoKAFBvcnRhIG5vbiBwdWx2aW5hciBuZXF1ZSBsYW9yZWV0IHN1c3BlbmRpc3NlIGludGVy

IHZlc3RpYnVsdW0gbG9yZW0gc2VkLgoKSW4gbnVsbGEgcG9zdWVyZSBzb2xsaWNpdHVkaW4gYWxp

!AIVDO,1,1,,,B3uBrjP0=@=Kjs`BoTPBgwV5wP06,0*10
dHJ1bSBxdWlzcXVlIG5vbiB0ZWxsdXMuCgoARmF1Y2lidXMgaW50ZXJkdW0gcG9zdWVyZSBsb3Jl

dG9yIG5lcXVlIHZpdGFlLgoKU2l0IGFtZXQgdm9sdXRwYXQgY29uc2VxdWF0IG1hdXJpcyBudW5j

$IIDPT,15.1,0.4,100.0*72
YWxlc3VhZGEgZmFtZXMuCgoAU2VkIHZpdmVycmEgaXBzdW0gbnVuYyBhbGlxdWV0LgoKAEV0IHVs

IGNyYXMuCgoARnJpbmdpbGxhIGVzdCB1bGxhbWNvcnBlciBlZ2V0IG51bGxhIGZhY2lsaXNpIGV0

!AIVDM,1,1,,B,802R5Ph0GhEKv1aVNNREQa60h4BvEuFMB7l>76@5=I02lCwwsAwwnSomwvwt,0*56
dGVtcG9yIGNvbW1vZG8gdWxsYW1jb3JwZXIgYS4KCgBTaXQgYW1ldCBqdXN0byBkb25lYyBlbmlt

dHVzIGFjY3Vtc2FuIHRvcnRvciBwb3N1ZXJlIGFjIHV0IGNvbnNlcXVhdCBzZW1wZXIuCgoATWF1

!AIVDM,1,1,,A,D02R3cQk8Nfr:hO6D<,4*6D
ZXQgbHVjdHVzIHZlbmVuYXRpcyBsZWN0dXMuCgoAUGhhc2VsbHVzIHZlc3RpYnVsdW0gbG9yZW0g

IGNvbmd1ZSBuaXNpIHZpdGFlIHN1c2NpcGl0IHRlbGx1cyBtYXVyaXMuCgoATmVjIHVsbGFtY29y

!AIVDM,1,1,,A,13u=gHPrSNPlvrlQ8rp755dH0p7o,0*40
YWMgdHVycGlzIGVnZXN0YXMgc2VkIHRlbXB1cyB1cm5hLgoKAE9kaW8gdXQgc2VtIG51bGxhIHBo

IHBsYXRlYS4KCgBOZWMgdWxsYW1jb3JwZXIgc2l0IGFtZXQgcmlzdXMgbnVsbGFtIGVnZXQgZmVs

$IIRMC,092212,A,5759.097,N,01144.345,E,5.5,30.5,,0.0,E,A*32
IGRvbG9yLgoKAFRvcnRvciBkaWduaXNzaW0gY29udmFsbGlzIGFlbmVhbiBldCB0b3J0b3IgYXQg

dG9yLgoKAEFyY3Ugb2RpbyB1dCBzZW0gbnVsbGEgcGhhcmV0cmEuCgoATnVsbGEgZmFjaWxpc2kg

$IIRMA,A,5759.098,N,01144.346,E,,,5.5,30.5,0.0,E,A*36
dSB2aXRhZSBlbGVtZW50dW0gY3VyYWJpdHVyLgoKAFByZXRpdW0gdnVscHV0YXRlIHNhcGllbiBu

CgoARmFjaWxpc2lzIG1hdXJpcyBzaXQgYW1ldCBtYXNzYSB2aXRhZS4KCgBWaXRhZSBwcm9pbiBz

$IIMTW,16.8,C*1C
Y3Jhcy4KCgBBbWV0IGp1c3RvIGRvbmVjIGVuaW0gZGlhbS4KCgBPZGlvIHRlbXBvciBvcmNpIGRh

aXBpc2NpbmcgZWxpdCBkdWlzLgoKAENyYXMgYWRpcGlzY2luZyBlbmltIGV1IHR1cnBpcyBlZ2Vz

$IIVLW,2354.923,N,2338.537,N*4E
dGV0dXIgYWRpcGlzY2luZyBlbGl0LgoKAFVsdHJpY2llcyBsZW8gaW50ZWdlciBtYWxlc3VhZGEg

ZSB1dCBwaGFyZXRyYSBzaXQuCgoAU2VtcGVyIGVnZXQgZHVpcyBhdCB0ZWxsdXMgYXQgdXJuYS4K

$IIVHW,,T,25.0,M,5.7,N,10.5,K*7A
dHJpc3RpcXVlIGV0LgoKAEhhYml0YW50IG1vcmJpIHRyaXN0aXF1ZSBzZW5lY3R1cyBldCBuZXR1

YXQuCgoATmVjIHNhZ2l0dGlzIGFsaXF1YW0gbWFsZXN1YWRhIGJpYmVuZHVtIGFyY3Ugdml0YWUg

$IIHDG,24.0,0,E,0.0,E*61
aWNpdHVkaW4gYWMgb3JjaSBwaGFzZWxsdXMuCgoAQWRpcGlzY2luZyB0cmlzdGlxdWUgcmlzdXMg

bGlzIG51bmMuCgoAUGFydHVyaWVudCBtb250ZXMgbmFzY2V0dXIgcmlkaWN1bHVzIG11cy4KCk1v

$IIDPT,15.4,0.4,100.0*77
YW1ldC4KCgBJbXBlcmRpZXQgbnVsbGEgbWFsZXN1YWRhIHBlbGxlbnRlc3F1ZSBlbGl0LgoKAFVs

bSBwb3N1ZXJlLgoKAFZvbHV0cGF0IG9kaW8gZmFjaWxpc2lzIG1hdXJpcyBzaXQgYW1ldCBtYXNz

!AIVDO,1,1,,,B3uBrjP0=0=Kk28BoUDBCwVUwP06,0*29
IGxlbyB2ZWwgZnJpbmdpbGxhIGVzdCB1bGxhbWNvcnBlciBlZ2V0LgoKTG9ib3J0aXMgbWF0dGlz

IGxvcmVtIGlwc3VtLgoKAEV1aXNtb2QgbmlzaSBwb3J0YSBsb3JlbSBtb2xsaXMgYWxpcXVhbSB1

!AIVDM,1,1,,A,802R5Ph0GhE<>iawh6RER91t?PE6EuOwgqwcwnSwe7wwwwwwsAwwnSjVwvwt,0*4B
dHVtIG1hdHRpcyBwZWxsZW50ZXNxdWUgaWQgbmliaC4KCgBUcmlzdGlxdWUgbnVsbGEgYWxpcXVl

YXJldHJhIG1hc3NhIG1hc3NhIHVsdHJpY2llcyBtaSBxdWlzLgoKAFNlZCByaXN1cyB1bHRyaWNp

$GPRMC,092214,A,5759.100,N,01144.348,E,005.5,030.3,200715,000.0,E*7B
ZWxlbWVudHVtLgoKAFN1c3BlbmRpc3NlIGluIGVzdCBhbnRlIGluIG5pYmggbWF1cmlzLgoKAFNl

ZW1lbnR1bSBzYWdpdHRpcyB2aXRhZS4KCgBMaWJlcm8gbnVuYyBjb25zZXF1YXQgaW50ZXJkdW0g

$GPRMB,A,,,,,,,,,,,,V*71
dGFzLgoKAFV0IGRpYW0gcXVhbSBudWxsYSBwb3J0dGl0b3IuCgoATWFzc2EgdWx0cmljaWVzIG1p

YWdpdHRpcyBuaXNsIHJob25jdXMgbWF0dGlzIHJob25jdXMgdXJuYSBuZXF1ZS4KCgBBbWV0IHJp

$GPGGA,092214,5759.100,N,01144.348,E,1,06,1.9,3.9,M,39.4,M,,*44
c2VkLgoKAFBvcnRhIG5vbiBwdWx2aW5hciBuZXF1ZSBsYW9yZWV0IHN1c3BlbmRpc3NlIGludGVy

b3N1ZXJlIHVybmEgbmVjIHRpbmNpZHVudCBwcmFlc2VudCBzZW1wZXIgZmV1Z2lhdCBuaWJoLgoK

$IIRMC,092212,A,5759.098,N,01144.346,E,5.5,30.5,,0.0,E,A*3E
YXVyaXMgY29tbW9kby4KCgBJbnRlZ2VyIGVuaW0gbmVxdWUgdm9sdXRwYXQgYWMgdGluY2lkdW50

ZWxlcmlzcXVlIHZpdmVycmEuCgoAQWRpcGlzY2luZyB0cmlzdGlxdWUgcmlzdXMgbmVjIGZldWdp

$IIRMA,A,5759.098,N,01144.346,E,,,5.5,30.5,0.0,E,A*36
aGFyZXRyYSBkaWFtIHNpdCBhbWV0LgoKAFZ1bHB1dGF0ZSBzYXBpZW4gbmVjIHNhZ2l0dGlzIGFs

dXMgZG9sb3IgcHVydXMuCgpNYXNzYSBwbGFjZXJhdCBkdWlzIHVsdHJpY2llcyBsYWN1cyBzZWQu

$IIMTW,16.8,C*1C
aXBpc2NpbmcgZWxpdCBkdWlzLgoKAENyYXMgYWRpcGlzY2luZyBlbmltIGV1IHR1cnBpcyBlZ2Vz

YWVzZW50IHNlbXBlci4KCgBNb3JiaSBxdWlzIGNvbW1vZG8gb2RpbyBhZW5lYW4gc2VkIGFkaXBp

$IIVLW,2354.924,N,2338.539,N*47
dHJpc3RpcXVlIGV0LgoKAEhhYml0YW50IG1vcmJpIHRyaXN0aXF1ZSBzZW5lY3R1cyBldCBuZXR1

cmV0aXVtIGFlbmVhbiBwaGFyZXRyYSBtYWduYSBhYy4KCgBCaWJlbmR1bSBuZXF1ZSBlZ2VzdGFz

$IIVHW,,T,25.0,M,5.8,N,10.7,K*77
ClNpdCBhbWV0IG51bGxhIGZhY2lsaXNpIG1vcmJpLgoKAEEgZGlhbSBtYWVjZW5hcyBzZWQgZW5p

aXNxdWUuCgoAUnV0cnVtIHF1aXNxdWUgbm9uIHRlbGx1cyBvcmNpIGFjIGF1Y3Rvci4KCgBTY2Vs

$IIHDG,25.0,0,E,0.0,E*60
ZWwgZmFjaWxpc2lzIHZvbHV0cGF0IGVzdCB2ZWxpdCBlZ2VzdGFzLgoKAFZlaGljdWxhIGlwc3Vt

ZWN0ZXR1ciBsaWJlcm8gaWQgZmF1Y2lidXMgbmlzbCB0aW5jaWR1bnQuCgoAU2VkIHJpc3VzIHBy

$IIDPT,15.3,0.4,100.0*70
IGdyYXZpZGEuCgoAU2FnaXR0aXMgYWxpcXVhbSBtYWxlc3VhZGEgYmliZW5kdW0gYXJjdSB2aXRh

IGFjIHR1cnBpcyBlZ2VzdGFzIG1hZWNlbmFzIHBoYXJldHJhLgoKAEVuaW0gdG9ydG9yIGF0IGF1

$GPGSA,A,3,02,,12,14,,24,25,32,,,,,2.7,1.9,2.0*39
ZXJpc3F1ZSBldSB1bHRyaWNlcyB2aXRhZSBhdWN0b3IgZXUuCgoARXVpc21vZCBxdWlzIHZpdmVy

ZW1wdXMuCgoASnVzdG8gZG9uZWMgZW5pbSBkaWFtIHZ1bHB1dGF0ZSB1dCBwaGFyZXRyYSBzaXQg

$GPGSV,2,1,08,02,21,120,45,06,29,080,00,12,86,124,54,14,41,275,47*7C
dWlzLgoKAEFsaXF1ZXQgZW5pbSB0b3J0b3IgYXQgYXVjdG9yIHVybmEgbnVuYy4KCgBMYWN1cyBz

YWMgdHVycGlzIGVnZXN0YXMgaW50ZWdlciBlZ2V0IGFsaXF1ZXQuCgoAUXVpcyB2ZWwgZXJvcyBk

$GPGSV,2,2,08,17,13,044,00,24,45,150,42,25,49,259,48,32,10,328,47*72
YWMgdHVycGlzIGVnZXN0YXMgaW50ZWdlciBlZ2V0IGFsaXF1ZXQuCgoAUXVpcyB2ZWwgZXJvcyBk

IGZhbWVzIGFjIHR1cnBpcyBlZ2VzdGFzIHNlZCB0ZW1wdXMuCgoARWdlc3RhcyBpbnRlZ2VyIGVn

$PGRME,19.1,M,19.8,M,27.5,M*17
dWF0IHNlbXBlci4KCgBJbnRlcmR1bSB2ZWxpdCBsYW9yZWV0IGlkIGRvbmVjIHVsdHJpY2VzIHRp

IHBlbGxlbnRlc3F1ZSBoYWJpdGFudCBtb3JiaSB0cmlzdGlxdWUgc2VuZWN0dXMgZXQuCgoAUG9z

$GPGLL,5759.101,N,01144.348,E,092214,A*27
aXMgZWdldCBudW5jLgoKAE5ldHVzIGV0IG1hbGVzdWFkYSBmYW1lcyBhYyB0dXJwaXMgZWdlc3Rh

Y3Jhcy4KCgBBbWV0IGp1c3RvIGRvbmVjIGVuaW0gZGlhbS4KCgBPZGlvIHRlbXBvciBvcmNpIGRh

$PGRMZ,13,f,3*29
IGRvbmVjIGV0LgoKAFRlbXB1cyBxdWFtIHBlbGxlbnRlc3F1ZSBuZWMgbmFtIGFsaXF1YW0gc2Vt

dSBzY2VsZXJpc3F1ZSBmZWxpcy4KCgBNYXR0aXMgdnVscHV0YXRlIGVuaW0gbnVsbGEgYWxpcXVl

$PGRMM,WGS 84*06
dml0YWUgc2VtcGVyIHF1aXMgbGVjdHVzIG51bGxhIGF0IHZvbHV0cGF0IGRpYW0uCgoATnVuYyBm

IGNyYXMuCgoARnJpbmdpbGxhIGVzdCB1bGxhbWNvcnBlciBlZ2V0IG51bGxhIGZhY2lsaXNpIGV0

$GPBOD,,T,,M,,*47
bnRlZ2VyIGZldWdpYXQgc2NlbGVyaXNxdWUgdmFyaXVzIG1vcmJpIGVuaW0gbnVuYyBmYXVjaWJ1

YWMgdHVycGlzIGVnZXN0YXMgaW50ZWdlciBlZ2V0IGFsaXF1ZXQuCgoAUXVpcyB2ZWwgZXJvcyBk

$GPRTE,1,1,c,0*07
IGFyY3UgZGljdHVtLgoKAE5vbiBuaXNpIGVzdCBzaXQgYW1ldC4KCgBDb21tb2RvIHVsbGFtY29y

Y2VzIHRpbmNpZHVudCBhcmN1IG5vbiBzb2RhbGVzIG5lcXVlLgoKAE1hbGVzdWFkYSBiaWJlbmR1

$IIRMC,092212,A,5759.098,N,01144.346,E,5.5,30.5,,0.0,E,A*3E
bSBzZW0gZnJpbmdpbGxhIHV0IG1vcmJpIHRpbmNpZHVudCBhdWd1ZS4KCgBFdGlhbSBzaXQgYW1l

b3J0aXMgZmV1Z2lhdCB2aXZhbXVzIGF0IGF1Z3VlIGVnZXQgYXJjdSBkaWN0dW0uCgoAVGluY2lk

$IIRMA,A,5759.098,N,01144.346,E,,,5.5,30.5,0.0,E,A*36
YWJpdGFudCBtb3JiaSB0cmlzdGlxdWUuCgoARWdlc3RhcyB0ZWxsdXMgcnV0cnVtIHRlbGx1cyBw

aWF0IHNlZCBsZWN0dXMuCgoAVHVycGlzIG1hc3NhIHRpbmNpZHVudCBkdWkgdXQgb3JuYXJlIGxl

$IIMTW,16.8,C*1C
TWF1cmlzIHJob25jdXMgYWVuZWFuIHZlbCBlbGl0IHNjZWxlcmlzcXVlLgoKAEluIGFudGUgbWV0

cy4KCgBUZW1wdXMgdXJuYSBldCBwaGFyZXRyYSBwaGFyZXRyYS4KCgBOaXNpIHNjZWxlcmlzcXVl

$IIVLW,2354.924,N,2338.54,N*79
Yy4KCgBWaXRhZSB1bHRyaWNpZXMgbGVvIGludGVnZXIgbWFsZXN1YWRhLgoKAENvbnNlY3RldHVy

aXN1cyB2aXZlcnJhIGFkaXBpc2NpbmcgYXQgaW4gdGVsbHVzIGludGVnZXIuCgoATmlzaSBzY2Vs

$IIVHW,,T,27.0,M,5.7,N,10.6,K*7B
cmljZXMgdGluY2lkdW50IGFyY3UuCgoAVmVsIGZyaW5naWxsYSBlc3QgdWxsYW1jb3JwZXIgZWdl

IHByYWVzZW50IHNlbXBlciBmZXVnaWF0LgoKAEVnZXN0YXMgY29uZ3VlIHF1aXNxdWUgZWdlc3Rh

!AIVDO,1,1,,,B3uBrjP0=0=Kk88BoV<ASwW5sP06,0*2E
LgoKAFZvbHV0cGF0IG1hZWNlbmFzIHZvbHV0cGF0IGJsYW5kaXQgYWxpcXVhbSBldGlhbSBlcmF0

b3J0aXMgZmV1Z2lhdC4KCgBBdCBhdWd1ZSBlZ2V0IGFyY3UgZGljdHVtLgoKAFN1c3BlbmRpc3Nl

$IIHDG,27.0,0,E,0.0,E*62
IHNlZCBuaXNpIGxhY3VzIHNlZCB2aXZlcnJhIHRlbGx1cyBpbiBoYWMuCgoARmF1Y2lidXMgc2Nl

YWVzZW50IHNlbXBlci4KCgBNb3JiaSBxdWlzIGNvbW1vZG8gb2RpbyBhZW5lYW4gc2VkIGFkaXBp

$IIDPT,15.2,0.4,100.0*71
YSBmYWNpbGlzaSBtb3JiaSB0ZW1wdXMuCgoAQW1ldCBjb25zZWN0ZXR1ciBhZGlwaXNjaW5nIGVs

YXNlbGx1cy4KCgBTaXQgYW1ldCBuaXNsIHB1cnVzIGluIG1vbGxpcyBudW5jIHNlZC4KCgBDb25z

!AIVDM,1,1,,B,402R3dAuur9F>0n7A:QIf:100H8q,0*02
aWRhIGN1bSBzb2NpaXMgbmF0b3F1ZS4KCgBBZW5lYW4gdmVsIGVsaXQgc2NlbGVyaXNxdWUgbWF1

IGEgYXJjdSBjdXJzdXMgdml0YWUuCgoAQXJjdSByaXN1cyBxdWlzIHZhcml1cyBxdWFtIHF1aXNx

$GPRMC,092215.00,A,5759.10253,N,01144.34844,E,5.248,27.03,200715,,,A*5B
bS4KCgBUaW5jaWR1bnQgdG9ydG9yIGFsaXF1YW0gbnVsbGEgZmFjaWxpc2kgY3Jhcy4KCgBDb252

IGRvbmVjIHByZXRpdW0uCgoAUXVhbSB2dWxwdXRhdGUgZGlnbmlzc2ltIHN1c3BlbmRpc3NlIGlu

!AIVDM,1,1,,B,H39JUq4TC=D5PRC41nnji00h6210,0*4C
cXVlIG5vbiB0ZWxsdXMgb3JjaSBhYyBhdWN0b3IgYXVndWUuCgoAQ3JhcyB0aW5jaWR1bnQgbG9i

Z3JhdmlkYSBjdW0gc29jaWlzIG5hdG9xdWUuCgoAU2l0IGFtZXQgcHVydXMgZ3JhdmlkYSBxdWlz

!AIVDM,1,1,,B,13u=gHPt3bPlvrTQ8rGo2EdL0d0T,0*05
ciBtYXR0aXMgbnVuYyBzZWQuCgoATmliaCBzaXQgYW1ldCBjb21tb2RvIG51bGxhLgoKAE1vcmJp

IGZhdWNpYnVzIGEgcGVsbGVudGVzcXVlLgoKTm9uIGJsYW5kaXQgbWFzc2EgZW5pbSBuZWMgZHVp

$IIRMC,092214,A,5759.101,N,01144.348,E,5.5,30.3,,0.0,E,A*31
cmV0cmEgbWFzc2EgbWFzc2EuCgpEaWFtIGluIGFyY3UgY3Vyc3VzIGV1aXNtb2QgcXVpcyB2aXZl

Z2V0IHNpdC4KCgBDcmFzIHNlbXBlciBhdWN0b3IgbmVxdWUgdml0YWUgdGVtcHVzIHF1YW0gcGVs

$IIRMA,A,5759.101,N,01144.348,E,,,5.5,30.3,0.0,E,A*3F
YXJldHJhIG1hc3NhIG1hc3NhIHVsdHJpY2llcyBtaSBxdWlzLgoKAFNlZCByaXN1cyB1bHRyaWNp

cmFzIHB1bHZpbmFyIG1hdHRpcyBudW5jLgoKAExlbyB1cm5hIG1vbGVzdGllIGF0IGVsZW1lbnR1

$IIMTW,16.8,C*1C
cmlzdXMgbnVsbGFtIGVnZXQgZmVsaXMuCgoAUHVsdmluYXIgc2FwaWVuIGV0IGxpZ3VsYSB1bGxh

bCBwdXJ1cyBpbiBtb2xsaXMgbnVuYyBzZWQgaWQgc2VtcGVyLgoKAFVsdHJpY2VzIHZpdGFlIGF1

$IIVLW,2354.925,N,2338.54,N*78
ZXJyYS4KCgBVdCBsZWN0dXMgYXJjdSBiaWJlbmR1bSBhdCB2YXJpdXMgdmVsLgoKAEdyYXZpZGEg

aXQgc2NlbGVyaXNxdWUgaW4gZGljdHVtLgoKAFV0IHNlbSBudWxsYSBwaGFyZXRyYSBkaWFtIHNp

!AIVDM,1,1,,A,B39JUq00>H=En<`BE:`i;wWUoP06,0*7F
bGVudGVzcXVlIG5lYy4KCkluIGhhYyBoYWJpdGFzc2UgcGxhdGVhIGRpY3R1bXN0IHZlc3RpYnVs

cm9pbiBsaWJlcm8gbnVuYyBjb25zZXF1YXQgaW50ZXJkdW0gdmFyaXVzIHNpdC4KCgBUb3J0b3Ig

$IIVHW,,T,27.0,M,5.8,N,10.7,K*75
cyB1cm5hIGV0IHBoYXJldHJhIHBoYXJldHJhIG1hc3NhLgoKAFRyaXN0aXF1ZSBzZW5lY3R1cyBl

dHVzIHZlbmVuYXRpcyBsZWN0dXMuCgoATWFsZXN1YWRhIG51bmMgdmVsIHJpc3VzIGNvbW1vZG8u

$IIHDG,27.0,0,E,0.0,E*62
ZXQgZW5pbSB0b3J0b3IuCgpVdCBldSBzZW0gaW50ZWdlciB2aXRhZSBqdXN0byBlZ2V0IG1hZ25h

YSBuYW0gbGliZXJvIGp1c3RvLgoKAEFkaXBpc2NpbmcgZW5pbSBldSB0dXJwaXMgZWdlc3RhcyBw

$IIDPT,15.3,0.4,100.0*70
TmVjIGR1aSBudW5jIG1hdHRpcyBlbmltIHV0IHRlbGx1cyBlbGVtZW50dW0uCgoATmVxdWUgZWdl

IHNlZCBuaXNpIGxhY3VzIHNlZCB2aXZlcnJhIHRlbGx1cyBpbiBoYWMuCgoARmF1Y2lidXMgc2Nl

$GPGBS,092215.00,1.9,1.5,3.2,,,,*41
dHVyIGEgZXJhdCBuYW0gYXQuCgoATmlzbCBuaXNpIHNjZWxlcmlzcXVlIGV1IHVsdHJpY2VzIHZp

cy4KCgBVcm5hIGlkIHZvbHV0cGF0IGxhY3VzIGxhb3JlZXQgbm9uIGN1cmFiaXR1ci4KCgBTaXQg

!AIVDM,1,1,,B,13v5NH001C0mDF@Q9Bdk32NP0<0n,0*67
YSB2aXRhZS4KCgBJcHN1bSBkb2xvciBzaXQgYW1ldCBjb25zZWN0ZXR1ciBhZGlwaXNjaW5nIGVs

IHN1c3BlbmRpc3NlIGludGVyZHVtLgoKAENyYXMgb3JuYXJlIGFyY3UgZHVpIHZpdmFtdXMgYXJj

!AIVDO,1,1,,,B3uBrjP0=0=Kk>8BoW4@swWUwP06,0*64
cmljZXMgZHVpIHNhcGllbiBlZ2V0IG1pLgoKAElhY3VsaXMgZXUgbm9uIGRpYW0gcGhhc2VsbHVz

dCB1bHRyaWNlcyBtaS4KCgBNaSBzaXQgYW1ldCBtYXVyaXMgY29tbW9kbyBxdWlzLgoKAEV1IG5v

!AIVDM,1,1,,B,802R5Ph0GhENJAb8wnREgq>lFR06EuOwgwl?wnSwe7wwwwwwsAwwnSomwvwt,0*76
ZXQgbnVuYyBsb2JvcnRpcy4KCgBOdW5jIHNlZCBpZCBzZW1wZXIgcmlzdXMgaW4gaGVuZHJlcml0

TGFjdXMgdmVzdGlidWx1bSBzZWQgYXJjdSBub24uCgoATmliaCB2ZW5lbmF0aXMgY3JhcyBzZWQg

$GPRMC,092216,A,5759.102,N,01144.349,E,005.5,030.4,200715,000.0,E*7D
c3VhZGEgZmFtZXMgYWMgdHVycGlzLgoKAFNlZCBuaXNpIGxhY3VzIHNlZCB2aXZlcnJhIHRlbGx1

ZW0gZG9uZWMgbWFzc2EuCgoATWFlY2VuYXMgdWx0cmljaWVzIG1pIGVnZXQgbWF1cmlzIHBoYXJl

$GPRMB,A,,,,,,,,,,,,V*71
c2VkIHJpc3VzIHByZXRpdW0gcXVhbSB2dWxwdXRhdGUgZGlnbmlzc2ltLgoKRGljdHVtIGZ1c2Nl

IHB1cnVzIG5vbiBlbmltLgoKAEJsYW5kaXQgdHVycGlzIGN1cnN1cyBpbiBoYWMgaGFiaXRhc3Nl

$GPGGA,092216,5759.102,N,01144.349,E,1,06,2.0,4.0,M,39.4,M,,*41
dCBhbWV0LgoKAFNpdCBhbWV0IGp1c3RvIGRvbmVjIGVuaW0gZGlhbSB2dWxwdXRhdGUgdXQuCgoA

b252YWxsaXMuCgoATWFsZXN1YWRhIG51bmMgdmVsIHJpc3VzIGNvbW1vZG8gdml2ZXJyYSBtYWVj

!AIVDM,1,1,,A,13M40b00010mTvRQ<INVu3:L0@9L,0*2A
IGVuaW0gcHJhZXNlbnQgZWxlbWVudHVtIGZhY2lsaXNpcy4KCgBTZWQgdWxsYW1jb3JwZXIgbW9y

aWlzIG5hdG9xdWUgcGVuYXRpYnVzIGV0LgoKRXJhdCB2ZWxpdCBzY2VsZXJpc3F1ZSBpbiBkaWN0

$IIRMC,092214,A,5759.101,N,01144.348,E,5.5,30.3,,0.0,E,A*31
IHZpdGFlLgoKAEVsZWlmZW5kIGRvbmVjIHByZXRpdW0gdnVscHV0YXRlIHNhcGllbiBuZWMgc2Fn

IGJsYW5kaXQgdHVycGlzIGN1cnN1cyBpbiBoYWMuCgoATmlzaSB2aXRhZSBzdXNjaXBpdCB0ZWxs

$IIRMA,A,5759.101,N,01144.348,E,,,5.5,30.3,0.0,E,A*3F
YnVsdW0uCgoAT3JjaSBhYyBhdWN0b3IgYXVndWUgbWF1cmlzIGF1Z3VlIG5lcXVlIGdyYXZpZGEg

c2VkIHZpdmVycmEgdGVsbHVzIGluIGhhYyBoYWJpdGFzc2UgcGxhdGVhIGRpY3R1bXN0IHZlc3Rp

$IIMTW,16.8,C*1C
CgoAVXQgZGlhbSBxdWFtIG51bGxhIHBvcnR0aXRvciBtYXNzYSBpZC4KCgBBdWN0b3IgZXUgYXVn

LgoKAENvbW1vZG8gb2RpbyBhZW5lYW4gc2VkIGFkaXBpc2NpbmcuCgoAR3JhdmlkYSBjdW0gc29j

$IIVLW,2354.928,N,2338.541,N*44
ZGlwaXNjaW5nIGVsaXQgcGVsbGVudGVzcXVlLgoKAFBvc3VlcmUgdXJuYSBuZWMgdGluY2lkdW50

dHVyIGdyYXZpZGEgYXJjdSBhYy4KCgBOZXF1ZSBncmF2aWRhIGluIGZlcm1lbnR1bSBldCBzb2xs

$IIVHW,,T,26.0,M,5.8,N,10.7,K*74
AFZpdGFlIGV0IGxlbyBkdWlzIHV0IGRpYW0gcXVhbS4KCgBVbHRyaWNlcyBzYWdpdHRpcyBvcmNp

dCBwb3J0dGl0b3IgbGVvIGEuCgoARW5pbSBuZWMgZHVpIG51bmMgbWF0dGlzIGVuaW0uCgoARmFj

$IIHDG,26.0,0,E,0.0,E*63
ZXNxdWUgZGlnbmlzc2ltLgoKAE1hc3NhIHRlbXBvciBuZWMgZmV1Z2lhdCBuaXNsIHByZXRpdW0g

Y3R1cyBzaXQgYW1ldCBlc3QuCgoASW1wZXJkaWV0IGR1aSBhY2N1bXNhbiBzaXQgYW1ldCBudWxs

$GPGSA,A,3,02,,12,14,,24,25,32,,,,,3.1,2.0,2.4*30
CgBQZWxsZW50ZXNxdWUgZXUgdGluY2lkdW50IHRvcnRvciBhbGlxdWFtIG51bGxhIGZhY2lsaXNp

bWV0IGRpY3R1bSBzaXQgYW1ldCBqdXN0byBkb25lYyBlbmltIGRpYW0uCgoATm9uIGNvbnNlY3Rl

$GPGSV,2,1,08,02,21,120,47,06,29,080,00,12,86,124,52,14,41,275,47*78
bnVuYyB2ZWwgcmlzdXMgY29tbW9kbyB2aXZlcnJhIG1hZWNlbmFzLgoKAE5lYyB1bGxhbWNvcnBl

IGRpYW0gcXVpcyBlbmltIGxvYm9ydGlzIHNjZWxlcmlzcXVlLgoKAFBlbGxlbnRlc3F1ZSBoYWJp

$GPGSV,2,2,08,17,13,044,00,24,45,150,32,25,49,259,46,32,10,328,49*75
IHBlbGxlbnRlc3F1ZSBoYWJpdGFudCBtb3JiaSB0cmlzdGlxdWUgc2VuZWN0dXMuCgoATW9sZXN0

dGVzcXVlIGhhYml0YW50IG1vcmJpIHRyaXN0aXF1ZSBzZW5lY3R1cyBldC4KCgBNYXR0aXMgYWxp

$PGRME,20.2,M,19.9,M,28.4,M*11
bGlzIGVnZXQgbnVuYyBsb2JvcnRpcyBtYXR0aXMuCgoAQWMgb3JjaSBwaGFzZWxsdXMgZWdlc3Rh

TG9yZW0gaXBzdW0gZG9sb3Igc2l0IGFtZXQgY29uc2VjdGV0dXIgYWRpcGlzY2luZyBlbGl0IGR1

$IIDPT,15.4,0.4,100.0*77
biB0b3J0b3IgcG9zdWVyZSBhYy4KCgBBIGNyYXMgc2VtcGVyIGF1Y3RvciBuZXF1ZSB2aXRhZSB0

YWMgdHVycGlzIGVnZXN0YXMgaW50ZWdlciBlZ2V0IGFsaXF1ZXQuCgoAUXVpcyB2ZWwgZXJvcyBk

$GPGLL,5759.103,N,01144.350,E,092216,A*2E
bGFuZGl0IG1hc3NhIGVuaW0gbmVjLgoKAFJpc3VzIGZldWdpYXQgaW4gYW50ZSBtZXR1cyBkaWN0

IGFjIHV0IGNvbnNlcXVhdCBzZW1wZXIgdml2ZXJyYSBuYW0gbGliZXJvIGp1c3RvLgoKAFZpdGFl

$PGRMZ,13,f,3*29
bW9yYmkgdGVtcHVzIGlhY3VsaXMgdXJuYSBpZCB2b2x1dHBhdC4KCgBNYWxlc3VhZGEgZmFtZXMg

bWV0IGp1c3RvLgoKAFF1aXMgYXVjdG9yIGVsaXQgc2VkIHZ1bHB1dGF0ZSBtaSBzaXQgYW1ldCBt

$PGRMM,WGS 84*06
cyByaXN1cy4KCgBSaWRpY3VsdXMgbXVzIG1hdXJpcyB2aXRhZSB1bHRyaWNpZXMgbGVvIGludGVn

AE1hdXJpcyBwaGFyZXRyYSBldCB1bHRyaWNlcyBuZXF1ZS4KCgBJbnRlZ2VyIG1hbGVzdWFkYSBu

$GPBOD,,T,,M,,*47
dHJpc3RpcXVlIGV0LgoKAEhhYml0YW50IG1vcmJpIHRyaXN0aXF1ZSBzZW5lY3R1cyBldCBuZXR1

Y3Vtc2FuIGxhY3VzIHZlbCBmYWNpbGlzaXMgdm9sdXRwYXQuCgoAT3JuYXJlIHN1c3BlbmRpc3Nl

$GPRTE,1,1,c,0*07
YXJjdSBub24gc29kYWxlcy4KCgBWZWxpdCBzZWQgdWxsYW1jb3JwZXIgbW9yYmkgdGluY2lkdW50

aXQgYXQgaW1wZXJkaWV0IGR1aSBhY2N1bXNhbi4KCgBNb2xsaXMgbnVuYyBzZWQgaWQgc2VtcGVy

$IIRMC,092216,A,5759.102,N,01144.349,E,5.5,30.4,,0.0,E,A*36
IGEgYXJjdSBjdXJzdXMgdml0YWUuCgoAQXJjdSByaXN1cyBxdWlzIHZhcml1cyBxdWFtIHF1aXNx

cmN1IGRpY3R1bSB2YXJpdXMgZHVpcyBhdCBjb25zZWN0ZXR1ciBsb3JlbSBkb25lYy4KCgBEYXBp

$IIRMA,A,5759.102,N,01144.349,E,,,5.5,30.4,0.0,E,A*3A
aXR0aXMgbmlzbCByaG9uY3VzIG1hdHRpcyByaG9uY3VzIHVybmEgbmVxdWUuCgpFbmltIG51bmMg

dC4KCg==

$IIMTW,16.8,C*1C
aWlzIG5hdG9xdWUgcGVuYXRpYnVzIGV0LgoKRXJhdCB2ZWxpdCBzY2VsZXJpc3F1ZSBpbiBkaWN0

cXVhbSBmYXVjaWJ1cyBwdXJ1cyBpbi4KCgBFbmltIG51bGxhIGFsaXF1ZXQgcG9ydHRpdG9yIGxh

$IIVLW,2354.928,N,2338.544,N*41
dXMuCgoARXJhdCBwZWxsZW50ZXNxdWUgYWRpcGlzY2luZyBjb21tb2RvIGVsaXQgYXQgaW1wZXJk

dHJhIGV0IHVsdHJpY2VzLgoKAEV1IGF1Z3VlIHV0IGxlY3R1cyBhcmN1IGJpYmVuZHVtIGF0IHZh

!AIVDO,1,1,,,B3uBrjP0=0=KkD`BoWlDSw`5wP06,0*6D
ZXQgZW5pbSB0b3J0b3IuCgpVdCBldSBzZW0gaW50ZWdlciB2aXRhZSBqdXN0byBlZ2V0IG1hZ25h

LgoKAENvbW1vZG8gb2RpbyBhZW5lYW4gc2VkIGFkaXBpc2NpbmcuCgoAR3JhdmlkYSBjdW0gc29j

$IIVHW,,T,26.0,M,5.7,N,10.5,K*79
cyBudW5jIHNlZCBhdWd1ZSBsYWN1cy4KCgBNYXVyaXMgYSBkaWFtIG1hZWNlbmFzIHNlZC4KCgBJ

bGlzIGVnZXQgbnVuYyBsb2JvcnRpcyBtYXR0aXMuCgoAQWMgb3JjaSBwaGFzZWxsdXMgZWdlc3Rh

$IIHDG,26.0,0,E,0.0,E*63
ci4KCgBBY2N1bXNhbiBsYWN1cyB2ZWwgZmFjaWxpc2lzIHZvbHV0cGF0IGVzdCB2ZWxpdCBlZ2Vz

cyBpbiBoYWMgaGFiaXRhc3NlIHBsYXRlYS4KCgBWZWxpdCBsYW9yZWV0IGlkIGRvbmVjIHVsdHJp

$IIDPT,15.3,0.4,100.0*70
Y3R1cyBhcmN1LgoKUG9zdWVyZSBhYyB1dCBjb25zZXF1YXQgc2VtcGVyIHZpdmVycmEgbmFtIGxp

YXIgbWF0dGlzIG51bmMgc2VkIGJsYW5kaXQgbGliZXJvIHZvbHV0cGF0IHNlZC4KCgBNb3JiaSB0

!AIVDM,1,1,,A,13u=gHP03TPlvrFQ8qo735dP0d0T,0*78
AElhY3VsaXMgYXQgZXJhdCBwZWxsZW50ZXNxdWUgYWRpcGlzY2luZyBjb21tb2RvIGVsaXQuCgoA

biBkaWFtIHBoYXNlbGx1cyB2ZXN0aWJ1bHVtIGxvcmVtIHNlZCByaXN1cyB1bHRyaWNpZXMuCgoA

$IIRMC,092216,A,5759.103,N,01144.350,E,5.5,30.4,,0.0,E,A*3F
ZWdlciBlZ2V0IGFsaXF1ZXQgbmliaCBwcmFlc2VudCB0cmlzdGlxdWUuCgoARmF1Y2lidXMgbmlz

IG1hdHRpcyByaG9uY3VzIHVybmEgbmVxdWUgdml2ZXJyYS4KCgBGYWNpbGlzaSBudWxsYW0gdmVo

$IIRMA,A,5759.103,N,01144.350,E,,,5.5,30.4,0.0,E,A*33
c29sbGljaXR1ZGluIHRlbXBvciBpZC4KCgBVcm5hIGR1aXMgY29udmFsbGlzIGNvbnZhbGxpcyB0

dXMgbWF1cmlzIGEgZGlhbS4KClVsdHJpY2VzIG1pIHRlbXB1cyBpbXBlcmRpZXQgbnVsbGEgbWFs

$IIMTW,16.8,C*1C
dmFyaXVzIHNpdCBhbWV0IG1hdHRpcy4KCgBTaXQgYW1ldCBkaWN0dW0gc2l0IGFtZXQganVzdG8g

aW1wZXJkaWV0IGR1aSBhY2N1bXNhbi4KCgBMaWJlcm8gbnVuYyBjb25zZXF1YXQgaW50ZXJkdW0g

$IIVLW,2354.929,N,2338.545,N*41
CgoAU2FwaWVuIG5lYyBzYWdpdHRpcyBhbGlxdWFtIG1hbGVzdWFkYSBiaWJlbmR1bSBhcmN1IHZp

dSBmZWxpcyBiaWJlbmR1bSB1dC4KCgBDcmFzIHB1bHZpbmFyIG1hdHRpcyBudW5jIHNlZCBibGFu

$IIVHW,,T,27.0,M,5.7,N,10.6,K*7B
ZSBlbGVpZmVuZCBkb25lYyBwcmV0aXVtIHZ1bHB1dGF0ZS4KCgBBdCBlbGVtZW50dW0gZXUgZmFj

cmljZXMgZHVpIHNhcGllbiBlZ2V0IG1pLgoKAElhY3VsaXMgZXUgbm9uIGRpYW0gcGhhc2VsbHVz

$IIHDG,27.0,0,E,0.0,E*62
cXVpcyBhdWN0b3IgZWxpdCBzZWQgdnVscHV0YXRlIG1pIHNpdC4KCgBNYXVyaXMgaW4gYWxpcXVh

dGVyZHVtIHZlbGl0LgoKAFVybmEgaWQgdm9sdXRwYXQgbGFjdXMgbGFvcmVldCBub24gY3VyYWJp

$IIDPT,15.6,0.4,100.0*75
ZCBhbGlxdWV0IHJpc3VzIGZldWdpYXQgaW4gYW50ZS4KCgBFc3QgdWx0cmljaWVzIGludGVnZXIg

IGNvbnNlcXVhdCBtYXVyaXMgbnVuYyBjb25ndWUgbmlzaSB2aXRhZS4KCgBFZ2V0IGZlbGlzIGVn

!AIVDO,1,1,,,B3uBrjP0=@=KkM8Bo`PDww`UwP06,0*03
bmNpZHVudCBhcmN1IG5vbiBzb2RhbGVzLgoKAEV1IGZhY2lsaXNpcyBzZWQgb2RpbyBtb3JiaSBx

IG9kaW8gYWVuZWFuIHNlZCBhZGlwaXNjaW5nIGRpYW0uCgoARmVsaXMgZWdldCBudW5jIGxvYm9y

$GPRMC,092218,A,5759.104,N,01144.352,E,005.5,031.0,200715,000.0,E*7A
IGlwc3VtIGRvbG9yIHNpdCBhbWV0LgoKAE51bGxhIGFsaXF1ZXQgZW5pbSB0b3J0b3IgYXQgYXVj

bS4KCgBOdWxsYSBwb3J0dGl0b3IgbWFzc2EgaWQgbmVxdWUgYWxpcXVhbSB2ZXN0aWJ1bHVtLgoK

$GPRMB,A,,,,,,,,,,,,V*71
YmVybyBudW5jIGNvbnNlcXVhdCBpbnRlcmR1bSB2YXJpdXMuCgoARXQgbWFsZXN1YWRhIGZhbWVz

dGluY2lkdW50IHRvcnRvci4KCgBIZW5kcmVyaXQgZ3JhdmlkYSBydXRydW0gcXVpc3F1ZSBub24u

$GPGGA,092218,5759.104,N,01144.352,E,1,06,1.9,3.8,M,39.4,M,,*46
YmliZW5kdW0gdXQgdHJpc3RpcXVlIGV0IGVnZXN0YXMgcXVpcy4KCgBOb24gYmxhbmRpdCBtYXNz

dC4KCgBFZ2VzdGFzIHB1cnVzIHZpdmVycmEgYWNjdW1zYW4gaW4gbmlzbC4KCgBUaW5jaWR1bnQg

!AIVDM,1,1,,B,39NSDN54AO0mv4FQ=OjoAn2T06b3,0*56
dCBlbGVtZW50dW0gZXUgZmFjaWxpc2lzIHNlZCBvZGlvIG1vcmJpIHF1aXMgY29tbW9kby4KCgBF

YSB2aXRhZSBjb25ndWUgZXUuCgoAU2VtcGVyIHJpc3VzIGluIGhlbmRyZXJpdCBncmF2aWRhIHJ1

!AIVDM,1,1,,B,802R5Ph0GhE<>iawh6RER91t?PE6EuOwgqwcwnSwe7wwwwwwsAwwnSjVwvwt,0*48
dGlzIG1hdHRpcyBhbGlxdWFtIGZhdWNpYnVzIHB1cnVzLgoKAEluIGVzdCBhbnRlIGluIG5pYmgg

IGFkaXBpc2NpbmcgZWxpdCB1dCBhbGlxdWFtIHB1cnVzIHNpdCBhbWV0LgoKAE1vcmJpIGxlbyB1

$IIRMC,092216,A,5759.103,N,01144.350,E,5.5,30.4,,0.0,E,A*3F
LgoKAEFjIG9kaW8gdGVtcG9yIG9yY2kgZGFwaWJ1cyB1bHRyaWNlcyBpbiBpYWN1bGlzIG51bmMg

dGVyZHVtIHZlbGl0LgoKAFVybmEgaWQgdm9sdXRwYXQgbGFjdXMgbGFvcmVldCBub24gY3VyYWJp

$IIRMA,A,5759.103,N,01144.350,E,,,5.5,30.4,0.0,E,A*33
CgoAU2VtcGVyIGVnZXQgZHVpcyBhdCB0ZWxsdXMgYXQuCgoAQ29udmFsbGlzIGEgY3JhcyBzZW1w

b2xsaWNpdHVkaW4gdGVtcG9yIGlkIGV1IG5pc2wuCgoAUHJldGl1bSBsZWN0dXMgcXVhbSBpZCBs

$IIMTW,16.8,C*1C
aGFiaXRhbnQgbW9yYmkgdHJpc3RpcXVlIHNlbmVjdHVzIGV0LgoKAFBsYWNlcmF0IGR1aXMgdWx0

dGlzIG1hdHRpcyBhbGlxdWFtIGZhdWNpYnVzIHB1cnVzLgoKAEluIGVzdCBhbnRlIGluIG5pYmgg

$IIVLW,2354.93,N,2338.545,N*79
aWlzIG5hdG9xdWUgcGVuYXRpYnVzIGV0LgoKRXJhdCB2ZWxpdCBzY2VsZXJpc3F1ZSBpbiBkaWN0

ZSBlbGVpZmVuZCBkb25lYyBwcmV0aXVtIHZ1bHB1dGF0ZS4KCgBBdCBlbGVtZW50dW0gZXUgZmFj

$IIVHW,,T,31.0,M,5.8,N,10.8,K*7D
cXVldCByaXN1cyBmZXVnaWF0IGluIGFudGUgbWV0dXMuCgoAVmVoaWN1bGEgaXBzdW0gYSBhcmN1

Y2VzIHRpbmNpZHVudCBhcmN1IG5vbiBzb2RhbGVzIG5lcXVlLgoKAE1hbGVzdWFkYSBiaWJlbmR1

$IIHDG,31.0,0,E,0.0,E*65
ZW5hcyBhY2N1bXNhbi4KCgBRdWFtIHBlbGxlbnRlc3F1ZSBuZWMgbmFtIGFsaXF1YW0gc2VtIGV0

IGEgYXJjdSBjdXJzdXMgdml0YWUuCgoAQXJjdSByaXN1cyBxdWlzIHZhcml1cyBxdWFtIHF1aXNx

$GPGSA,A,3,02,,12,14,,24,25,32,,,,,2.7,1.9,2.0*39
ZWwgZmFjaWxpc2lzIHZvbHV0cGF0IGVzdCB2ZWxpdCBlZ2VzdGFzLgoKAFZlaGljdWxhIGlwc3Vt

dXJhYml0dXIgdml0YWUgbnVuYyBzZWQgdmVsaXQgZGlnbmlzc2ltLgoKAEV0IHRvcnRvciBhdCBy

$GPGSV,2,1,08,02,21,120,44,06,29,080,00,12,86,124,54,14,41,275,47*7D
aXMgY29udmFsbGlzIHRlbGx1cyBpZCBpbnRlcmR1bS4KCgBFZ2V0IHZlbGl0IGFsaXF1ZXQgc2Fn

ZXRpdW0gYWVuZWFuIHBoYXJldHJhIG1hZ25hIGFjIHBsYWNlcmF0IHZlc3RpYnVsdW0uCgoARXN0

$GPGSV,2,2,08,17,13,044,00,24,45,150,32,25,49,259,46,32,10,328,49*75
bWF1cmlzIHJob25jdXMuCgoATW9sbGlzIGFsaXF1YW0gdXQgcG9ydHRpdG9yIGxlbyBhIGRpYW0g

bS4KCgBOdWxsYSBwb3J0dGl0b3IgbWFzc2EgaWQgbmVxdWUgYWxpcXVhbSB2ZXN0aWJ1bHVtLgoK

$PGRME,19.1,M,19.8,M,27.5,M*17
IGRvbmVjIGV0LgoKAFRlbXB1cyBxdWFtIHBlbGxlbnRlc3F1ZSBuZWMgbmFtIGFsaXF1YW0gc2Vt

b2x1dHBhdCBvZGlvIGZhY2lsaXNpcyBtYXVyaXMuCgoAT2RpbyBhZW5lYW4gc2VkIGFkaXBpc2Np

$IIDPT,15.6,0.4,100.0*75
dGlzIG1hdHRpcyBhbGlxdWFtIGZhdWNpYnVzIHB1cnVzLgoKAEluIGVzdCBhbnRlIGluIG5pYmgg

ZWMgZW5pbSBkaWFtIHZ1bHB1dGF0ZSB1dCBwaGFyZXRyYS4KCgBWaXRhZSBzYXBpZW4gcGVsbGVu

$GPGLL,5759.105,N,01144.353,E,092218,A*25
YSBuZXF1ZSBjb252YWxsaXMgYSBjcmFzIHNlbXBlciBhdWN0b3IgbmVxdWUgdml0YWUgdGVtcHVz

dWlzIGxlY3R1cyBudWxsYSBhdCB2b2x1dHBhdCBkaWFtIHV0LgoKAFR1cnBpcyBlZ2VzdGFzIG1h

$PGRMZ,12,f,3*28
aXR0aXMgYWxpcXVhbSBtYWxlc3VhZGEgYmliZW5kdW0uCgpOaXNsIHZlbCBwcmV0aXVtIGxlY3R1

aXVtIG5pYmggaXBzdW0gY29uc2VxdWF0IG5pc2wgdmVsIHByZXRpdW0uCgoAQXVjdG9yIG5lcXVl

$PGRMM,WGS 84*06
ZXIgbWFsZXN1YWRhIG51bmMuCgoAVGVtcHVzIHVybmEgZXQgcGhhcmV0cmEgcGhhcmV0cmEgbWFz

cyBzZWQgb2RpbyBtb3JiaSBxdWlzLgoKAE51bGxhIGZhY2lsaXNpIG1vcmJpIHRlbXB1cyBpYWN1

$GPBOD,,T,,M,,*47
YXJldHJhIGRpYW0gc2l0LgoKAEVnZXQgbnVsbGEgZmFjaWxpc2kgZXRpYW0gZGlnbmlzc2ltIGRp

Y3R1cyBzaXQgYW1ldCBlc3QuCgoASW1wZXJkaWV0IGR1aSBhY2N1bXNhbiBzaXQgYW1ldCBudWxs

$GPRTE,1,1,c,0*07
cGVsbGVudGVzcXVlLgoKAEVyYXQgcGVsbGVudGVzcXVlIGFkaXBpc2NpbmcgY29tbW9kbyBlbGl0

aSBjcmFzIGZlcm1lbnR1bSBvZGlvIGV1LgoKAE9kaW8gZXVpc21vZCBsYWNpbmlhIGF0IHF1aXMg

!AIVDO,1,1,,,B3uBrjP0=@=KkU`Boa@D?wa5wP06,0*7B
YnVsdW0uCgoAT3JjaSBhYyBhdWN0b3IgYXVndWUgbWF1cmlzIGF1Z3VlIG5lcXVlIGdyYXZpZGEg

dCBsZW8gZHVpcyB1dCBkaWFtIHF1YW0uCgoAVmVsaXQgc2NlbGVyaXNxdWUgaW4gZGljdHVtIG5v

$IIRMC,092218,A,5759.104,N,01144.352,E,5.5,31.0,,0.0,E,A*31
YmliZW5kdW0gbmVxdWUgZWdlc3RhcyBjb25ndWUgcXVpc3F1ZSBlZ2VzdGFzLgoKAFZvbHV0cGF0

IHBsYXRlYS4KCgBOZWMgdWxsYW1jb3JwZXIgc2l0IGFtZXQgcmlzdXMgbnVsbGFtIGVnZXQgZmVs

$IIRMA,A,5759.104,N,01144.352,E,,,5.5,31.0,0.0,E,A*33
dCBvcm5hcmUgbGVjdHVzIHNpdC4KCgBMZWN0dXMgcHJvaW4gbmliaCBuaXNsIGNvbmRpbWVudHVt

IGluLgoKTnVuYyBpZCBjdXJzdXMgbWV0dXMgYWxpcXVhbSBlbGVpZmVuZCBtaS4KCgBQb3N1ZXJl

$IIMTW,16.8,C*1C
LgoKAFR1cnBpcyBudW5jIGVnZXQgbG9yZW0gZG9sb3Igc2VkLgoKAEluIGZlcm1lbnR1bSBldCBz

dWlzLgoKAEFsaXF1ZXQgZW5pbSB0b3J0b3IgYXQgYXVjdG9yIHVybmEgbnVuYy4KCgBMYWN1cyBz

$IIVLW,2354.93,N,2338.546,N*7A
c2VtcGVyIGF1Y3RvciBuZXF1ZSB2aXRhZSB0ZW1wdXMuCgoAQWVuZWFuIGV1aXNtb2QgZWxlbWVu

AFZlbGl0IGRpZ25pc3NpbSBzb2RhbGVzIHV0IGV1IHNlbSBpbnRlZ2VyLgoKAEVnZXQgbnVuYyBz

$IIVHW,,T,29.0,M,5.8,N,10.8,K*74
dGFlIHRlbXB1cy4KCgBJbXBlcmRpZXQgc2VkIGV1aXNtb2QgbmlzaSBwb3J0YSBsb3JlbS4KCgBB

bGljaXR1ZGluIGFjIG9yY2kuCgoARW5pbSBwcmFlc2VudCBlbGVtZW50dW0gZmFjaWxpc2lzIGxl

$IIHDG,29.0,0,E,0.0,E*6C
dWV0IG5lYyB1bGxhbWNvcnBlciBzaXQgYW1ldCByaXN1cy4KCgBFbGl0IHNlZCB2dWxwdXRhdGUg

ciBkaWduaXNzaW0gY29udmFsbGlzLgoKAERpcyBwYXJ0dXJpZW50IG1vbnRlcyBuYXNjZXR1ciBy

$GPRMC,092219.00,A,5759.10728,N,01144.35457,E,5.278,32.84,200715,,,A*59
CgoARmFjaWxpc2lzIG1hdXJpcyBzaXQgYW1ldCBtYXNzYSB2aXRhZS4KCgBWaXRhZSBwcm9pbiBz

Y3VtIHNvY2lpcyBuYXRvcXVlIHBlbmF0aWJ1cyBldCBtYWduaXMgZGlzIHBhcnR1cmllbnQuCgoA

$IIDPT,15.6,0.4,100.0*75
anVzdG8gZG9uZWMgZW5pbSBkaWFtIHZ1bHB1dGF0ZSB1dC4KCgBJYWN1bGlzIG51bmMgc2VkIGF1

YWJpdGFudCBtb3JiaSB0cmlzdGlxdWUuCgoARWdlc3RhcyB0ZWxsdXMgcnV0cnVtIHRlbGx1cyBw

!AIVDM,1,1,,B,13u=gHP2CNPlvr0Q8qFG:5fT0h;D,0*24
aWNpdHVkaW4gYWMgb3JjaSBwaGFzZWxsdXMuCgoAQWRpcGlzY2luZyB0cmlzdGlxdWUgcmlzdXMg

CgBGYWNpbGlzaXMgdm9sdXRwYXQgZXN0IHZlbGl0IGVnZXN0YXMgZHVpIGlkLgoKAEVnZXN0YXMg

!AIVDM,1,1,,B,33u><=P010PmJs8Q0w744jjT0000,0*47
Y3VtIHNvY2lpcyBuYXRvcXVlIHBlbmF0aWJ1cyBldCBtYWduaXMgZGlzIHBhcnR1cmllbnQuCgoA

aXNxdWUuCgoAUnV0cnVtIHF1aXNxdWUgbm9uIHRlbGx1cyBvcmNpIGFjIGF1Y3Rvci4KCgBTY2Vs

$IIRMC,092218,A,5759.105,N,01144.353,E,5.5,31.0,,0.0,E,A*31
ZWdlc3RhcyBpbnRlZ2VyLgoKAFNjZWxlcmlzcXVlIGZlbGlzIGltcGVyZGlldCBwcm9pbiBmZXJt

dGluY2lkdW50IHRvcnRvci4KCgBIZW5kcmVyaXQgZ3JhdmlkYSBydXRydW0gcXVpc3F1ZSBub24u

$IIRMA,A,5759.105,N,01144.353,E,,,5.5,31.0,0.0,E,A*33
dGFlIHRlbXB1cy4KCgBJbXBlcmRpZXQgc2VkIGV1aXNtb2QgbmlzaSBwb3J0YSBsb3JlbS4KCgBB

IHBlbGxlbnRlc3F1ZSBoYWJpdGFudCBtb3JiaSB0cmlzdGlxdWUgc2VuZWN0dXMgZXQuCgoAUG9z

$IIMTW,16.8,C*1C
ZXQgcmlzdXMuCgpTYXBpZW4gZWdldCBtaSBwcm9pbiBzZWQgbGliZXJvIGVuaW0gc2VkLgoKAFJp

Y2kgbnVsbGEgcGVsbGVudGVzcXVlIGRpZ25pc3NpbSBlbmltIHNpdCBhbWV0IHZlbmVuYXRpcyB1

$IIVLW,2354.932,N,2338.548,N*46
YmliZW5kdW0gbmVxdWUgZWdlc3RhcyBjb25ndWUgcXVpc3F1ZSBlZ2VzdGFzLgoKAFZvbHV0cGF0

dG9yLgoKAEludGVnZXIgZmV1Z2lhdCBzY2VsZXJpc3F1ZSB2YXJpdXMgbW9yYmkgZW5pbSBudW5j

$GPGBS,092219.00,1.9,1.5,3.2,,,,*4D
c2VkIHZpdmVycmEgdGVsbHVzIGluIGhhYyBoYWJpdGFzc2UgcGxhdGVhIGRpY3R1bXN0IHZlc3Rp

Y3Vtc2FuIGxhY3VzIHZlbCBmYWNpbGlzaXMgdm9sdXRwYXQuCgoAT3JuYXJlIHN1c3BlbmRpc3Nl

$IIVHW,,T,30.0,M,5.9,N,11.0,K*74
aGFiaXRhbnQgbW9yYmkgdHJpc3RpcXVlIHNlbmVjdHVzIGV0LgoKAFBsYWNlcmF0IGR1aXMgdWx0

ZSBpbiBuaWJoIG1hdXJpcy4KCgBUaW5jaWR1bnQgYXJjdSBub24gc29kYWxlcyBuZXF1ZSBzb2Rh

$IIHDG,30.0,0,E,0.0,E*64
biBoYWMgaGFiaXRhc3NlIHBsYXRlYSBkaWN0dW1zdC4KCgBNYWxlc3VhZGEgZmFtZXMgYWMgdHVy

aWN1bGEgaXBzdW0gYSBhcmN1IGN1cnN1cy4KCgBRdWlzIHZhcml1cyBxdWFtIHF1aXNxdWUgaWQg

$IIDPT,15.6,0.4,100.0*75
dXMgYXQuCgoARXJvcyBpbiBjdXJzdXMgdHVycGlzIG1hc3NhIHRpbmNpZHVudCBkdWkgdXQgb3Ju

TGFjdXMgdmVzdGlidWx1bSBzZWQgYXJjdSBub24uCgoATmliaCB2ZW5lbmF0aXMgY3JhcyBzZWQg

$GPRMC,092220,A,5759.107,N,01144.355,E,005.5,031.5,200715,000.0,E*70
b3N1ZXJlIHVybmEgbmVjIHRpbmNpZHVudCBwcmFlc2VudCBzZW1wZXIgZmV1Z2lhdCBuaWJoLgoK

ZXRyYSBwaGFyZXRyYSBtYXNzYSBtYXNzYS4KCgBBcmN1IGN1cnN1cyBldWlzbW9kIHF1aXMgdml2

$GPRMB,A,,,,,,,,,,,,V*71
CgBWZWxpdCBkaWduaXNzaW0gc29kYWxlcyB1dCBldSBzZW0gaW50ZWdlciB2aXRhZS4KCgBQZWxs

aSBjcmFzIGZlcm1lbnR1bSBvZGlvIGV1LgoKAE9kaW8gZXVpc21vZCBsYWNpbmlhIGF0IHF1aXMg

$GPGGA,092220,5759.107,N,01144.356,E,1,06,1.9,3.9,M,39.4,M,,*4B
ZXJpc3F1ZSB2YXJpdXMgbW9yYmkgZW5pbSBudW5jIGZhdWNpYnVzLgoKAE51bmMgc2VkIHZlbGl0

AEVsZWlmZW5kIGRvbmVjIHByZXRpdW0gdnVscHV0YXRlIHNhcGllbiBuZWMgc2FnaXR0aXMuCgoA

!AIVDO,1,1,,,B3uBrjP0=0=Kkd`Bob0DSwaUwP06,0*45
dGVyZHVtIHZlbGl0IGV1aXNtb2QuCgoAQ3Vyc3VzIGV1aXNtb2QgcXVpcyB2aXZlcnJhIG5pYmgg

ZGlhbSBxdWFtLgoKAERvbG9yIG1vcmJpIG5vbiBhcmN1IHJpc3VzIHF1aXMgdmFyaXVzLgoKAEV0

!AIVDM,1,1,,A,802R5Ph0GhENJAb8wnREgq>lFR06EuOwgwl?wnSwe7wwwwwwsAwwnSomwvwt,0*75
IGF0IGltcGVyZGlldCBkdWkgYWNjdW1zYW4gc2l0LgoKAFBlbGxlbnRlc3F1ZSBlbGl0IGVnZXQg

dW0gYXQgdGVtcG9yIGNvbW1vZG8uCgoARmF1Y2lidXMgdHVycGlzIGluIGV1IG1pIGJpYmVuZHVt

$GPGSA,A,3,02,,12,14,,24,25,32,,,,,2.7,1.9,2.0*39
aWlzIG5hdG9xdWUgcGVuYXRpYnVzIGV0LgoKRXJhdCB2ZWxpdCBzY2VsZXJpc3F1ZSBpbiBkaWN0

b25lYyBhYyBvZGlvIHRlbXBvciBvcmNpIGRhcGlidXMgdWx0cmljZXMuCgoAQW1ldCBsdWN0dXMg

$GPGSV,2,1,08,02,21,120,48,06,29,080,00,12,86,124,53,14,41,275,45*74
IGluIGVnZXN0YXMgZXJhdC4KCgBGcmluZ2lsbGEgdXQgbW9yYmkgdGluY2lkdW50IGF1Z3VlIGlu

cyBmZXVnaWF0IGluIGFudGUuCgoATmVjIGZldWdpYXQgaW4gZmVybWVudHVtIHBvc3VlcmUgdXJu

$GPGSV,2,2,08,17,13,044,00,24,45,150,44,25,49,259,47,32,10,328,48*74
dSBmZWxpcyBiaWJlbmR1bSB1dC4KCgBDcmFzIHB1bHZpbmFyIG1hdHRpcyBudW5jIHNlZCBibGFu

Y3VzIGRvbG9yIHB1cnVzIG5vbiBlbmltIHByYWVzZW50LgoKAFNpdCBhbWV0IG1hdHRpcyB2dWxw

$IIRMC,092218,A,5759.105,N,01144.353,E,5.5,31.0,,0.0,E,A*31
IGV0aWFtLgoKAE1vcmJpIGxlbyB1cm5hIG1vbGVzdGllIGF0IGVsZW1lbnR1bSBldSBmYWNpbGlz

dWUgcHVsdmluYXIgcGVsbGVudGVzcXVlIGhhYml0YW50LgoKAEluIG1ldHVzIHZ1bHB1dGF0ZSBl

$IIRMA,A,5759.105,N,01144.353,E,,,5.5,31.0,0.0,E,A*33
IGxvcmVtIGlwc3VtLgoKAEV1aXNtb2QgbmlzaSBwb3J0YSBsb3JlbSBtb2xsaXMgYWxpcXVhbSB1

ZXQgYWxpcXVldCBuaWJoIHByYWVzZW50LgoKAE51bmMgbWF0dGlzIGVuaW0gdXQgdGVsbHVzIGVs

$IIMTW,16.8,C*1C
AEFsaXF1ZXQgc2FnaXR0aXMgaWQgY29uc2VjdGV0dXIgcHVydXMgdXQuCgoAQWxpcXVhbSBzZW0g

ZW50ZXNxdWUgaGFiaXRhbnQgbW9yYmkgdHJpc3RpcXVlIHNlbmVjdHVzIGV0IG5ldHVzIGV0LgoK

$IIVLW,2354.935,N,2338.548,N*41
IGZhdWNpYnVzIGEgcGVsbGVudGVzcXVlLgoKTm9uIGJsYW5kaXQgbWFzc2EgZW5pbSBuZWMgZHVp

dCBsZW8gZHVpcyB1dCBkaWFtIHF1YW0uCgoAVmVsaXQgc2NlbGVyaXNxdWUgaW4gZGljdHVtIG5v

$IIVHW,,T,29.0,M,5.8,N,10.8,K*74
cmR1bSBjb25zZWN0ZXR1ciBsaWJlcm8uCgoATmFtIGFsaXF1YW0gc2VtIGV0IHRvcnRvciBjb25z

ZSB2aXZlcnJhLgoKAEVsaXQgZHVpcyB0cmlzdGlxdWUgc29sbGljaXR1ZGluIG5pYmggc2l0IGFt

$IIHDG,28.0,0,E,0.0,E*6D
ZHVtIGF0IHZhcml1cyB2ZWwgcGhhcmV0cmEuCgoAQWRpcGlzY2luZyBjb21tb2RvIGVsaXQgYXQg

b25zZXF1YXQuCgoAVXJuYSBwb3J0dGl0b3IgcmhvbmN1cyBkb2xvciBwdXJ1cyBub24gZW5pbSBw

$IIDPT,15.2,0.4,100.0*71
aXVtIG5pYmggaXBzdW0gY29uc2VxdWF0IG5pc2wgdmVsIHByZXRpdW0uCgoAQXVjdG9yIG5lcXVl

IGRvbG9yLgoKAFRvcnRvciBkaWduaXNzaW0gY29udmFsbGlzIGFlbmVhbiBldCB0b3J0b3IgYXQg

$PGRME,19.1,M,19.8,M,27.5,M*17
TmVjIGR1aSBudW5jIG1hdHRpcyBlbmltIHV0IHRlbGx1cyBlbGVtZW50dW0uCgoATmVxdWUgZWdl

IGlkIGZhdWNpYnVzIG5pc2wgdGluY2lkdW50IGVnZXQuCgoAVml2YW11cyBhdCBhdWd1ZSBlZ2V0

$GPGLL,5759.108,N,01144.356,E,092220,A*26
Y2VuYXMgdm9sdXRwYXQgYmxhbmRpdCBhbGlxdWFtLgoKAFNlZCBjcmFzIG9ybmFyZSBhcmN1IGR1

Y3VzIGRvbG9yIHB1cnVzIG5vbiBlbmltIHByYWVzZW50LgoKAFNpdCBhbWV0IG1hdHRpcyB2dWxw

$PGRMZ,13,f,3*29
YWVjZW5hcyB2b2x1dHBhdCBibGFuZGl0IGFsaXF1YW0uCgoARGlhbSBtYWVjZW5hcyB1bHRyaWNp

dWUgdXQgbGVjdHVzIGFyY3UgYmliZW5kdW0gYXQuCgoARHVpIGlkIG9ybmFyZSBhcmN1IG9kaW8g

$PGRMM,WGS 84*06
dGV0dXIgYWRpcGlzY2luZyBlbGl0LgoKAFVsdHJpY2llcyBsZW8gaW50ZWdlciBtYWxlc3VhZGEg

YSBmZXJtZW50dW0gaWFjdWxpcyBldS4KCgBFZ2V0IG51bmMgc2NlbGVyaXNxdWUgdml2ZXJyYSBt

$GPBOD,,T,,M,,*47
Y3VtIHNvY2lpcyBuYXRvcXVlIHBlbmF0aWJ1cyBldCBtYWduaXMgZGlzIHBhcnR1cmllbnQuCgoA

IHRlbGx1cyBydXRydW0gdGVsbHVzLgoKAFJpc3VzIHNlZCB2dWxwdXRhdGUgb2RpbyB1dCBlbmlt

$GPRTE,1,1,c,0*07
YSBuZXF1ZSBjb252YWxsaXMgYSBjcmFzIHNlbXBlciBhdWN0b3IgbmVxdWUgdml0YWUgdGVtcHVz

cyBpbiBoYWMgaGFiaXRhc3NlIHBsYXRlYS4KCgBWZWxpdCBsYW9yZWV0IGlkIGRvbmVjIHVsdHJp

$IIRMC,092220,A,5759.107,N,01144.356,E,5.5,31.5,,0.0,E,A*38
YSBhbGlxdWEuCgoAVml0YWUgcHVydXMgZmF1Y2lidXMgb3JuYXJlIHN1c3BlbmRpc3NlIHNlZC4K

ZXJyYS4KCgBVdCBsZWN0dXMgYXJjdSBiaWJlbmR1bSBhdCB2YXJpdXMgdmVsLgoKAEdyYXZpZGEg

!AIVDM,2,1,8,A,53bvpB02;CK10@lf220<u84j0lThhE0u8622221@:`?<35sC0>l3lUSkp81R,0*3B
cyBxdWFtIGlkIGxlbyBpbi4KCgBOb24gc29kYWxlcyBuZXF1ZSBzb2RhbGVzIHV0IGV0aWFtIHNp

dCBlbmltIHRvcnRvciBhdCBhdWN0b3IgdXJuYSBudW5jIGlkLgoKAE5pc2wgcHVydXMgaW4gbW9s

$IIRMA,A,5759.107,N,01144.356,E,,,5.5,31.5,0.0,E,A*31
ciBtYXR0aXMgbnVuYyBzZWQuCgoATmliaCBzaXQgYW1ldCBjb21tb2RvIG51bGxhLgoKAE1vcmJp

IG51bmMgbWF0dGlzIGVuaW0gdXQuCgoATWV0dXMgdnVscHV0YXRlIGV1IHNjZWxlcmlzcXVlIGZl

!AIVDM,2,2,8,A,C`888888882,2*0D
bGFtY29ycGVyIGEgbGFjdXMuCgoAU2FwaWVuIGV0IGxpZ3VsYSB1bGxhbWNvcnBlciBtYWxlc3Vh

bmlzc2ltIHN1c3BlbmRpc3NlLgoKAER1aSB2aXZhbXVzIGFyY3UgZmVsaXMgYmliZW5kdW0gdXQg

$IIMTW,16.8,C*1C
ZWMgZXQgb2Rpby4KClZpdGFlIGF1Y3RvciBldSBhdWd1ZSB1dCBsZWN0dXMuCgoAU2l0IGFtZXQg

dXNwZW5kaXNzZSBwb3RlbnRpLgoKAExvYm9ydGlzIGZldWdpYXQgdml2YW11cyBhdCBhdWd1ZSBl

!AIVDO,1,1,,,B3uBrjP0=0=Kkl8BoblESwb5sP06,0*2F
dXMuCgoARXJhdCBwZWxsZW50ZXNxdWUgYWRpcGlzY2luZyBjb21tb2RvIGVsaXQgYXQgaW1wZXJk

ZCB2aXZlcnJhIHRlbGx1cyBpbiBoYWMgaGFiaXRhc3NlIHBsYXRlYS4KCgBTaXQgYW1ldCBtYXVy

$IIVLW,2354.936,N,2338.551,N*4A
cyBzaXQgYW1ldCB2b2x1dHBhdCBjb25zZXF1YXQgbWF1cmlzIG51bmMgY29uZ3VlIG5pc2kgdml0

YXVjaWJ1cyBhIHBlbGxlbnRlc3F1ZSBzaXQgYW1ldCBwb3J0dGl0b3IgZWdldCBkb2xvci4KCgBT

$IIVHW,,T,28.0,M,5.8,N,10.7,K*7A
VmVsaXQgZXVpc21vZCBpbiBwZWxsZW50ZXNxdWUgbWFzc2EgcGxhY2VyYXQuCgoASW4gZXUgbWkg

LgoKAEVnZXQgZWdlc3RhcyBwdXJ1cyB2aXZlcnJhIGFjY3Vtc2FuIGluIG5pc2wgbmlzaS4KCgBF

$IIHDG,27.0,0,E,0.0,E*62
dGlzIG1hdHRpcyBhbGlxdWFtIGZhdWNpYnVzIHB1cnVzLgoKAEluIGVzdCBhbnRlIGluIG5pYmgg

dGFzIGR1aSBpZC4KCgBFZ2V0IG1hdXJpcyBwaGFyZXRyYSBldCB1bHRyaWNlcyBuZXF1ZSBvcm5h

$IIDPT,15.2,0.4,100.0*71
Y3VzIGx1Y3R1cyBhY2N1bXNhbiB0b3J0b3IgcG9zdWVyZS4KCgBFZ2VzdGFzIGZyaW5naWxsYSBw

bmcgZGlhbSBkb25lYy4KClByZXRpdW0gdnVscHV0YXRlIHNhcGllbiBuZWMgc2FnaXR0aXMuCgoA

!AIVDM,1,1,,A,13u=gHP4SmPlvqfQ8pn7@Ef`0d0T,0*37
cGlzIGVnZXN0YXMuCgoAQW1ldCBhbGlxdWFtIGlkIGRpYW0gbWFlY2VuYXMgdWx0cmljaWVzIG1p

IGRpZ25pc3NpbSBzb2RhbGVzIHV0IGV1LgoKAEFjIHV0IGNvbnNlcXVhdCBzZW1wZXIgdml2ZXJy

!AIVDM,1,1,,B,13bvpB001f0lP3lQ7Ga8tWBb0@<Q,0*63
ZnVzY2UuCgoARXQgdG9ydG9yIGNvbnNlcXVhdCBpZCBwb3J0YSBuaWJoIHZlbmVuYXRpcyBjcmFz

AEFsaXF1ZXQgc2FnaXR0aXMgaWQgY29uc2VjdGV0dXIgcHVydXMgdXQuCgoAQWxpcXVhbSBzZW0g

$IIRMC,092220,A,5759.108,N,01144.356,E,5.5,31.5,,0.0,E,A*37
IHVsdHJpY2llcyB0cmlzdGlxdWUuCgoAUXVpcyB2aXZlcnJhIG5pYmggY3JhcyBwdWx2aW5hciBt

VmVsaXQgZXVpc21vZCBpbiBwZWxsZW50ZXNxdWUgbWFzc2EgcGxhY2VyYXQuCgoASW4gZXUgbWkg

$IIRMA,A,5759.108,N,01144.356,E,,,5.5,31.5,0.0,E,A*3E
b3JwZXIgdmVsaXQgc2VkIHVsbGFtY29ycGVyIG1vcmJpIHRpbmNpZHVudCBvcm5hcmUgbWFzc2Eu

dSBjb25zZXF1YXQgYWMgZmVsaXMgZG9uZWMgZXQuCgoAQXQgZWxlbWVudHVtIGV1IGZhY2lsaXNp

$IIMTW,16.8,C*1C
ZWN0ZXR1ciBsaWJlcm8gaWQgZmF1Y2lidXMgbmlzbCB0aW5jaWR1bnQuCgoAU2VkIHJpc3VzIHBy

cyBvcm5hcmUgc3VzcGVuZGlzc2Ugc2VkIG5pc2kgbGFjdXMgc2VkLgoKAEFtZXQganVzdG8gZG9u

$IIVLW,2354.936,N,2338.552,N*49
ZWxsdXMgaWQuCgoARWxpdCB1bGxhbWNvcnBlciBkaWduaXNzaW0gY3JhcyB0aW5jaWR1bnQgbG9i

aWNlcyBkdWkgc2FwaWVuIGVnZXQuCgoARmF1Y2lidXMgZXQgbW9sZXN0aWUgYWMgZmV1Z2lhdC4K

$IIVHW,,T,29.0,M,5.7,N,10.6,K*75
dCBjb25zZWN0ZXR1ciBhZGlwaXNjaW5nIGVsaXQgZHVpcy4KCgBIYWJpdGFudCBtb3JiaSB0cmlz

cml1cy4KCkxhY3VzIHNlZCB0dXJwaXMgdGluY2lkdW50IGlkIGFsaXF1ZXQgcmlzdXMgZmV1Z2lh

$IIHDG,29.0,0,E,0.0,E*6C
dGVzcXVlIGhhYml0YW50IG1vcmJpIHRyaXN0aXF1ZSBzZW5lY3R1cyBldC4KCgBNYXR0aXMgYWxp

YW1ldC4KCgBJbXBlcmRpZXQgbnVsbGEgbWFsZXN1YWRhIHBlbGxlbnRlc3F1ZSBlbGl0LgoKAFVs

$IIDPT,14.9,0.4,100.0*7B
aXQgcGVsbGVudGVzcXVlIGhhYml0YW50IG1vcmJpIHRyaXN0aXF1ZS4KCgBGYWNpbGlzaSBldGlh

IHByYWVzZW50IHNlbXBlciBmZXVnaWF0LgoKAEVnZXN0YXMgY29uZ3VlIHF1aXNxdWUgZWdlc3Rh

$GPRMC,092222,A,5759.109,N,01144.358,E,005.5,031.8,200715,000.0,E*7C
ZXQgY29tbW9kby4KCgBUaW5jaWR1bnQgYXJjdSBub24gc29kYWxlcyBuZXF1ZSBzb2RhbGVzIHV0

dXMgYXQuCgoARXJvcyBpbiBjdXJzdXMgdHVycGlzIG1hc3NhIHRpbmNpZHVudCBkdWkgdXQgb3Ju

$GPRMB,A,,,,,,,,,,,,V*71
cG9zdWVyZSBzb2xsaWNpdHVkaW4gYWxpcXVhbS4KCgBIYWJpdGFzc2UgcGxhdGVhIGRpY3R1bXN0

bmlzc2ltIHN1c3BlbmRpc3NlLgoKAER1aSB2aXZhbXVzIGFyY3UgZmVsaXMgYmliZW5kdW0gdXQg

$GPGGA,092222,5759.110,N,01144.359,E,1,06,1.9,3.9,M,39.4,M,,*40
IGhhYml0YW50IG1vcmJpIHRyaXN0aXF1ZSBzZW5lY3R1cy4KCgBNYXR0aXMgYWxpcXVhbSBmYXVj

cyBhY2N1bXNhbiB0b3J0b3IgcG9zdWVyZSBhYyB1dCBjb25zZXF1YXQgc2VtcGVyIHZpdmVycmEu

!AIVDO,1,1,,,B3uBrjP0=0=Kkt`BocTF3wbUsP06,0*55
IGFjLgoKAFBlbmF0aWJ1cyBldCBtYWduaXMgZGlzIHBhcnR1cmllbnQuCgpOdWxsYW0gZWdldCBm

dCBzY2VsZXJpc3F1ZSBpbiBkaWN0dW0gbm9uIGNvbnNlY3RldHVyLgoKAFNlZCBuaXNpIGxhY3Vz

!AIVDM,1,1,,A,402R3cQuur9FE0o<l:Q0lDi0059H,0*5A
ZHVtLgoKAEEgZGlhbSBzb2xsaWNpdHVkaW4gdGVtcG9yIGlkIGV1IG5pc2wgbnVuYy4KCgBTaXQg

dWlzLgoKAEFsaXF1ZXQgZW5pbSB0b3J0b3IgYXQgYXVjdG9yIHVybmEgbnVuYy4KCgBMYWN1cyBz

$IIRMC,092220,A,5759.108,N,01144.356,E,5.5,31.5,,0.0,E,A*37
IGVuaW0gcHJhZXNlbnQgZWxlbWVudHVtIGZhY2lsaXNpcy4KCgBTZWQgdWxsYW1jb3JwZXIgbW9y

dG9yIG5lcXVlIHZpdGFlLgoKU2l0IGFtZXQgdm9sdXRwYXQgY29uc2VxdWF0IG1hdXJpcyBudW5j

$IIRMA,A,5759.110,N,01144.359,E,,,5.5,31.8,0.0,E,A*35
CgBQZWxsZW50ZXNxdWUgZXUgdGluY2lkdW50IHRvcnRvciBhbGlxdWFtIG51bGxhIGZhY2lsaXNp

aXQgc2NlbGVyaXNxdWUgaW4gZGljdHVtLgoKAFV0IHNlbSBudWxsYSBwaGFyZXRyYSBkaWFtIHNp

$IIMTW,16.9,C*1D
aW5nIGRpYW0uCgoATWFzc2EgZWdldCBlZ2VzdGFzIHB1cnVzIHZpdmVycmEgYWNjdW1zYW4gaW4g

ZWMgc2FnaXR0aXMgYWxpcXVhbSBtYWxlc3VhZGEgYmliZW5kdW0uCgoATWF1cmlzIHJob25jdXMg

$IIVLW,2354.936,N,2338.552,N*49
ZSBlbGVtZW50dW0gY3VyYWJpdHVyLgoKAElwc3VtIGZhdWNpYnVzIHZpdGFlIGFsaXF1ZXQgbmVj

YXVjaWJ1cyBpbiBvcm5hcmUgcXVhbSB2aXZlcnJhLgoKAEFkaXBpc2NpbmcgdHJpc3RpcXVlIHJp

$GPGSA,A,3,02,,12,14,,24,25,32,,,,,2.7,1.9,2.0*39
YXJjdSBub24gc29kYWxlcy4KCgBWZWxpdCBzZWQgdWxsYW1jb3JwZXIgbW9yYmkgdGluY2lkdW50

aXMgZWdldCBudW5jLgoKAE5ldHVzIGV0IG1hbGVzdWFkYSBmYW1lcyBhYyB0dXJwaXMgZWdlc3Rh

$GPGSV,2,1,08,02,21,120,43,06,29,080,00,12,86,124,54,14,41,275,47*7A
Y2lidXMuCgoASWFjdWxpcyBudW5jIHNlZCBhdWd1ZSBsYWN1cyB2aXZlcnJhIHZpdGFlIGNvbmd1

ZCBvcm5hcmUgYXJjdSBvZGlvIHV0IHNlbSBudWxsYSBwaGFyZXRyYSBkaWFtLgoKAEZhdWNpYnVz

$GPGSV,2,2,08,17,13,044,00,24,45,150,43,25,49,259,46,32,10,328,48*72
biBldCB0b3J0b3IgYXQgcmlzdXMgdml2ZXJyYS4KCkxvcmVtIGlwc3VtIGRvbG9yIHNpdCBhbWV0

IGVzdCBhbnRlIGluLgoKAFRpbmNpZHVudCBkdWkgdXQgb3JuYXJlIGxlY3R1cyBzaXQgYW1ldCBl

$PGRME,19.1,M,19.8,M,27.5,M*17
c2kuCgoATm9uIG5pc2kgZXN0IHNpdCBhbWV0IGZhY2lsaXNpcyBtYWduYSBldGlhbSB0ZW1wb3Ig

aGFzZWxsdXMgZmF1Y2lidXMgc2NlbGVyaXNxdWUuCgoATWF0dGlzIHJob25jdXMgdXJuYSBuZXF1

$IIVHW,,T,31.0,M,5.7,N,10.6,K*7C
LgoKAFNpdCBhbWV0IGNvbW1vZG8gbnVsbGEgZmFjaWxpc2kgbnVsbGFtIHZlaGljdWxhIGlwc3Vt

cy4KCgBUZW1wdXMgdXJuYSBldCBwaGFyZXRyYSBwaGFyZXRyYS4KCgBOaXNpIHNjZWxlcmlzcXVl

$GPGLL,5759.110,N,01144.360,E,092222,A*28
c3VzIHZpdmVycmEgYWRpcGlzY2luZyBhdCBpbiB0ZWxsdXMgaW50ZWdlciBmZXVnaWF0LgoKAFZp

YW1ldCB2ZW5lbmF0aXMgdXJuYSBjdXJzdXMgZWdldCBudW5jLgoKAFNlZCB2dWxwdXRhdGUgbWkg

$PGRMZ,13,f,3*29
dHJ1bSBxdWlzcXVlIG5vbiB0ZWxsdXMuCgoARmF1Y2lidXMgaW50ZXJkdW0gcG9zdWVyZSBsb3Jl

ZWdlc3RhcyBmcmluZ2lsbGEgcGhhc2VsbHVzIGZhdWNpYnVzIHNjZWxlcmlzcXVlIGVsZWlmZW5k

$PGRMM,WGS 84*06
c3RhcyBjb25ndWUgcXVpc3F1ZSBlZ2VzdGFzIGRpYW0gaW4uCgoARW5pbSBkaWFtIHZ1bHB1dGF0

CgoATWkgaXBzdW0gZmF1Y2lidXMgdml0YWUgYWxpcXVldCBuZWMgdWxsYW1jb3JwZXIgc2l0IGFt

$IIHDG,32.0,0,E,0.0,E*66
CgBGYWNpbGlzaXMgdm9sdXRwYXQgZXN0IHZlbGl0IGVnZXN0YXMgZHVpIGlkLgoKAEVnZXN0YXMg

IGNvbmd1ZSBuaXNpIHZpdGFlIHN1c2NpcGl0IHRlbGx1cyBtYXVyaXMuCgoATmVjIHVsbGFtY29y

$GPBOD,,T,,M,,*47
YXQgcmlzdXMgdml2ZXJyYSBhZGlwaXNjaW5nIGF0IGluIHRlbGx1cyBpbnRlZ2VyIGZldWdpYXQu

dHVtIG1hdHRpcyBwZWxsZW50ZXNxdWUgaWQgbmliaC4KCgBUcmlzdGlxdWUgbnVsbGEgYWxpcXVl

$IIDPT,14.9,0.4,100.0*7B
bSBsYWN1cyBzdXNwZW5kaXNzZS4KCgBNZXR1cyBhbGlxdWFtIGVsZWlmZW5kIG1pIGluIG51bGxh

bGxlbnRlc3F1ZSBuZWMgbmFtIGFsaXF1YW0gc2VtIGV0IHRvcnRvciBjb25zZXF1YXQuCgoATmVx

$GPRTE,1,1,c,0*07
aW1wZXJkaWV0IGR1aSBhY2N1bXNhbi4KCgBMaWJlcm8gbnVuYyBjb25zZXF1YXQgaW50ZXJkdW0g

IGNvbmd1ZSBxdWlzcXVlIGVnZXN0YXMgZGlhbSBpbi4KCgBFdSBmZXVnaWF0IHByZXRpdW0gbmli

!AIVDO,1,1,,,B3uBrjP0<h=Kl5`Bod@DGwc5wP06,0*4A
IGdyYXZpZGEuCgoAU2FnaXR0aXMgYWxpcXVhbSBtYWxlc3VhZGEgYmliZW5kdW0gYXJjdSB2aXRh

c3F1ZSBzYWdpdHRpcyBwdXJ1cyBzaXQgYW1ldCB2b2x1dHBhdCBjb25zZXF1YXQgbWF1cmlzLgoK

$GPRMC,092223.00,A,5759.11204,N,01144.36109,E,5.144,32.99,200715,,,A*57
dmFyaXVzIHNpdCBhbWV0IG1hdHRpcy4KCgBTaXQgYW1ldCBkaWN0dW0gc2l0IGFtZXQganVzdG8g

RmV1Z2lhdCBzZWQgbGVjdHVzIHZlc3RpYnVsdW0gbWF0dGlzIHVsbGFtY29ycGVyIHZlbGl0IHNl

$IIRMC,092222,A,5759.110,N,01144.359,E,5.5,31.8,,0.0,E,A*3E
ZXJkdW0uCgoATWFnbmEgZmVybWVudHVtIGlhY3VsaXMgZXUgbm9uIGRpYW0gcGhhc2VsbHVzIHZl

CgoATnVsbGEgYXQgdm9sdXRwYXQgZGlhbSB1dCB2ZW5lbmF0aXMgdGVsbHVzIGluLgoKAE1hbGVz

$IIRMA,A,5759.110,N,01144.359,E,,,5.5,31.8,0.0,E,A*35
IGZhbWVzIGFjIHR1cnBpcyBlZ2VzdGFzIHNlZCB0ZW1wdXMuCgoARWdlc3RhcyBpbnRlZ2VyIGVn

cmR1bSBjb25zZWN0ZXR1ciBsaWJlcm8uCgoATmFtIGFsaXF1YW0gc2VtIGV0IHRvcnRvciBjb25z

$IIMTW,16.8,C*1C
dmVuZW5hdGlzIGxlY3R1cyBtYWduYSBmcmluZ2lsbGEgdXJuYSBwb3J0dGl0b3IgcmhvbmN1cy4K

ZWdlc3RhcyBmcmluZ2lsbGEgcGhhc2VsbHVzIGZhdWNpYnVzIHNjZWxlcmlzcXVlIGVsZWlmZW5k

$IIVLW,2354.938,N,2338.553,N*46
c2VtcGVyIGF1Y3RvciBuZXF1ZSB2aXRhZSB0ZW1wdXMuCgoAQWVuZWFuIGV1aXNtb2QgZWxlbWVu

bSBzZW0gZnJpbmdpbGxhIHV0IG1vcmJpIHRpbmNpZHVudCBhdWd1ZS4KCgBFdGlhbSBzaXQgYW1l

!AIVDM,1,1,,B,802R5Ph0GhF;L9`luVREQ8j;iN06EuOwgwl?wnSwe7wwwwwwsAwwnSomwvwt,0*5D
aWV0IGR1aS4KCkRvbmVjIG1hc3NhIHNhcGllbiBmYXVjaWJ1cyBldCBtb2xlc3RpZSBhYyBmZXVn

ZXQgZG9sb3IgbW9yYmkgbm9uIGFyY3UuCgoAVGVtcG9yIGlkIGV1IG5pc2wgbnVuYyBtaSBpcHN1

$IIVHW,,T,32.0,M,5.6,N,10.5,K*7D
ZW50dW0gbGVvIHZlbCBvcmNpIHBvcnRhLgoKAEFsaXF1YW0gZWxlaWZlbmQgbWkgaW4gbnVsbGEg

dSB2aXRhZSBlbGVtZW50dW0gY3VyYWJpdHVyLgoKAFByZXRpdW0gdnVscHV0YXRlIHNhcGllbiBu

$IIHDG,32.0,0,E,0.0,E*66
dWlzIGNvbW1vZG8uCgpWYXJpdXMgbW9yYmkgZW5pbSBudW5jIGZhdWNpYnVzIGEgcGVsbGVudGVz

YXVjaWJ1cyBhIHBlbGxlbnRlc3F1ZSBzaXQuCgoAQ3JhcyBzZW1wZXIgYXVjdG9yIG5lcXVlIHZp

$IIDPT,15.0,0.4,100.0*73
Y3VtIHNvY2lpcyBuYXRvcXVlIHBlbmF0aWJ1cyBldCBtYWduaXMgZGlzIHBhcnR1cmllbnQuCgoA

IGRvbmVjIGV0LgoKAFRlbXB1cyBxdWFtIHBlbGxlbnRlc3F1ZSBuZWMgbmFtIGFsaXF1YW0gc2Vt

!AIVDM,1,1,,B,13u=gHP1kePlvqNQ8pEW4Udd0d0T,0*00
dW50IGxvYm9ydGlzIGZldWdpYXQgdml2YW11cyBhdCBhdWd1ZSBlZ2V0IGFyY3UuCgoATnVsbGEg

aWxpc2kgY3JhcyBmZXJtZW50dW0gb2RpbyBldSBmZXVnaWF0IHByZXRpdW0gbmliaCBpcHN1bSBj

!AIVDM,1,1,,A,B3uA7DP00H=GhE`B0mr<swcUoP06,0*65
bWV0dXMgZGljdHVtLgoKAFZlbCByaXN1cyBjb21tb2RvIHZpdmVycmEgbWFlY2VuYXMuCgoASW4g

dCBzY2VsZXJpc3F1ZSBpbiBkaWN0dW0gbm9uIGNvbnNlY3RldHVyLgoKAFNlZCBuaXNpIGxhY3Vz

$GPGBS,092223.00,1.9,1.5,3.2,,,,*44
ZW50dW0gbGFjaW5pYSBxdWlzLgoKAFF1aXMgY29tbW9kbyBvZGlvIGFlbmVhbiBzZWQgYWRpcGlz

IGVzdCBhbnRlIGluLgoKAFRpbmNpZHVudCBkdWkgdXQgb3JuYXJlIGxlY3R1cyBzaXQgYW1ldCBl

$IIRMC,092222,A,5759.110,N,01144.360,E,5.5,31.8,,0.0,E,A*34
ZSBpbiBuaWJoIG1hdXJpcy4KCgBUaW5jaWR1bnQgYXJjdSBub24gc29kYWxlcyBuZXF1ZSBzb2Rh

biB2ZWwgZWxpdCBzY2VsZXJpc3F1ZSBtYXVyaXMgcGVsbGVudGVzcXVlLgoKAFF1aXNxdWUgbm9u

$IIRMA,A,5759.110,N,01144.360,E,,,5.5,31.8,0.0,E,A*3F
YSBmYWNpbGlzaSBtb3JiaSB0ZW1wdXMuCgoAQW1ldCBjb25zZWN0ZXR1ciBhZGlwaXNjaW5nIGVs

IHZpdGFlIHRlbXB1cyBxdWFtIHBlbGxlbnRlc3F1ZS4KCgBMb2JvcnRpcyBmZXVnaWF0IHZpdmFt

$IIMTW,16.8,C*1C
ZCB1bGxhbWNvcnBlciBtb3JiaS4KCgBNYWduYSBlZ2V0IGVzdCBsb3JlbSBpcHN1bSBkb2xvciBz

dWlzLgoKAEFsaXF1ZXQgZW5pbSB0b3J0b3IgYXQgYXVjdG9yIHVybmEgbnVuYy4KCgBMYWN1cyBz

$IIVLW,2354.939,N,2338.555,N*41
ZXJyYS4KCgBVdCBsZWN0dXMgYXJjdSBiaWJlbmR1bSBhdCB2YXJpdXMgdmVsLgoKAEdyYXZpZGEg

dWV0IG5lYyB1bGxhbWNvcnBlciBzaXQgYW1ldCByaXN1cy4KCgBFbGl0IHNlZCB2dWxwdXRhdGUg

$IIVHW,,T,32.0,M,5.6,N,10.3,K*7B
c2VkIHJpc3VzIHByZXRpdW0gcXVhbSB2dWxwdXRhdGUgZGlnbmlzc2ltLgoKRGljdHVtIGZ1c2Nl

dG9yLgoKAEFyY3Ugb2RpbyB1dCBzZW0gbnVsbGEgcGhhcmV0cmEuCgoATnVsbGEgZmFjaWxpc2kg

$IIHDG,32.0,0,E,0.0,E*66
ZW1wdXMuCgoASnVzdG8gZG9uZWMgZW5pbSBkaWFtIHZ1bHB1dGF0ZSB1dCBwaGFyZXRyYSBzaXQg

dGVyZHVtIHZlbGl0IGV1aXNtb2QuCgoAQ3Vyc3VzIGV1aXNtb2QgcXVpcyB2aXZlcnJhIG5pYmgg

$GPRMC,092224,A,5759.112,N,01144.361,E,005.3,032.7,200715,000.0,E*70
dCBlbmltIHRvcnRvciBhdCBhdWN0b3IgdXJuYSBudW5jIGlkLgoKAE5pc2wgcHVydXMgaW4gbW9s

c2l0IGFtZXQgbWF1cmlzIGNvbW1vZG8gcXVpcyBpbXBlcmRpZXQuCgoARXQgcGhhcmV0cmEgcGhh

$GPRMB,A,,,,,,,,,,,,V*71
cm5hIGlkLgoKAE5lYyBkdWkgbnVuYyBtYXR0aXMgZW5pbSB1dCB0ZWxsdXMgZWxlbWVudHVtIHNh

ZWdlciBlZ2V0IGFsaXF1ZXQgbmliaCBwcmFlc2VudCB0cmlzdGlxdWUuCgoARmF1Y2lidXMgbmlz

$GPGGA,092224,5759.112,N,01144.362,E,1,06,1.9,3.7,M,39.4,M,,*42
IGluIGVnZXN0YXMgZXJhdC4KCgBGcmluZ2lsbGEgdXQgbW9yYmkgdGluY2lkdW50IGF1Z3VlIGlu

IGRpYW0gcXVpcyBlbmltIGxvYm9ydGlzIHNjZWxlcmlzcXVlLgoKAFBlbGxlbnRlc3F1ZSBoYWJp

!AIVDO,1,1,,,B3uBrjP0<h=Kl=8Boe0DWwcUwP06,0*1B
Y2luZyBkaWFtIGRvbmVjIGFkaXBpc2NpbmcuCgoARW5pbSBmYWNpbGlzaXMgZ3JhdmlkYSBuZXF1

dCB1bGxhbWNvcnBlciBlZ2V0IG51bGxhIGZhY2lsaXNpLgoKAEFsaXF1ZXQgZWdldCBzaXQgYW1l

$IIDPT,15.5,0.4,100.0*76
ZXQuCgoATmVjIG5hbSBhbGlxdWFtIHNlbSBldCB0b3J0b3IgY29uc2VxdWF0IGlkLgoKAE9yY2kg

aWF0IHNlZCBsZWN0dXMuCgoAVHVycGlzIG1hc3NhIHRpbmNpZHVudCBkdWkgdXQgb3JuYXJlIGxl

!AIVDM,1,1,,B,B3@oDQh0<p=MPJ`C71Ap;wd5oP06,0*20
aXQgYW1ldC4KCgBBbGlxdWFtIG51bGxhIGZhY2lsaXNpIGNyYXMgZmVybWVudHVtLgoKAFZlc3Rp

ZW5hcyBhY2N1bXNhbi4KCgBRdWFtIHBlbGxlbnRlc3F1ZSBuZWMgbmFtIGFsaXF1YW0gc2VtIGV0

$GPGSA,A,3,02,,12,14,,24,25,32,,,,,2.7,1.9,2.0*39
dmFyaXVzIHNpdCBhbWV0IG1hdHRpcy4KCgBTaXQgYW1ldCBkaWN0dW0gc2l0IGFtZXQganVzdG8g

IG1hZ25pcyBkaXMgcGFydHVyaWVudCBtb250ZXMgbmFzY2V0dXIgcmlkaWN1bHVzIG11cy4KCgBQ

$GPGSV,2,1,08,02,21,120,44,06,29,080,00,12,86,124,53,14,41,275,44*79
ZW50dW0gbGVvIHZlbCBvcmNpIHBvcnRhLgoKAEFsaXF1YW0gZWxlaWZlbmQgbWkgaW4gbnVsbGEg

YW1ldCBtYXNzYSB2aXRhZSB0b3J0b3IgY29uZGltZW50dW0gbGFjaW5pYS4KCgBRdWlzIHZpdmVy

$GPGSV,2,2,08,17,13,044,00,24,45,150,44,25,49,259,49,32,10,328,47*75
bSBzZW0gZnJpbmdpbGxhIHV0IG1vcmJpIHRpbmNpZHVudCBhdWd1ZS4KCgBFdGlhbSBzaXQgYW1l

Y2lwaXQgYWRpcGlzY2luZyBiaWJlbmR1bS4KCgBUb3J0b3IgYWxpcXVhbSBudWxsYSBmYWNpbGlz

$PGRME,19.1,M,19.8,M,27.5,M*17
cnR0aXRvciBsYWN1cyBsdWN0dXMgYWNjdW1zYW4gdG9ydG9yIHBvc3VlcmUgYWMgdXQgY29uc2Vx

ZWdldC4KClBvc3VlcmUgbW9yYmkgbGVvIHVybmEgbW9sZXN0aWUgYXQuCgoAUG9ydHRpdG9yIGVn

$GPGLL,5759.112,N,01144.363,E,092224,A*2F
bmVjLgoKAFB1cnVzIG5vbiBlbmltIHByYWVzZW50IGVsZW1lbnR1bSBmYWNpbGlzaXMgbGVvIHZl

c3VzIG51bGxhbSBlZ2V0IGZlbGlzIGVnZXQgbnVuYyBsb2JvcnRpcyBtYXR0aXMgYWxpcXVhbS4K

$PGRMZ,11,f,3*2B
IHBlbGxlbnRlc3F1ZSBoYWJpdGFudCBtb3JiaSB0cmlzdGlxdWUgc2VuZWN0dXMuCgoATW9sZXN0

bWNvcnBlciBtYWxlc3VhZGEuCgoATmV0dXMgZXQgbWFsZXN1YWRhIGZhbWVzIGFjIHR1cnBpcyBl

$PGRMM,WGS 84*06
IGJsYW5kaXQgdm9sdXRwYXQuCgoAUXVpcyBjb21tb2RvIG9kaW8gYWVuZWFuIHNlZCBhZGlwaXNj

bmVjdHVzLgoKAFNpdCBhbWV0IGNvbnNlY3RldHVyIGFkaXBpc2NpbmcgZWxpdC4KCgBBbnRlIGlu

$IIRMC,092224,A,5759.112,N,01144.362,E,5.3,32.7,,0.0,E,A*38
bWV0IGp1c3RvLgoKAFF1aXMgYXVjdG9yIGVsaXQgc2VkIHZ1bHB1dGF0ZSBtaSBzaXQgYW1ldCBt

dCBuaXNsIHB1cnVzIGluIG1vbGxpcyBudW5jIHNlZC4KCgBDdXJzdXMgZXVpc21vZCBxdWlzIHZp

$IIRMA,A,5759.112,N,01144.362,E,,,5.3,32.7,0.0,E,A*35
IHRlbGx1cyBydXRydW0gdGVsbHVzLgoKAFJpc3VzIHNlZCB2dWxwdXRhdGUgb2RpbyB1dCBlbmlt

aXMuCgoASnVzdG8gbGFvcmVldCBzaXQgYW1ldCBjdXJzdXMgc2l0IGFtZXQgZGljdHVtIHNpdC4K

$IIMTW,16.8,C*1C
IHRlbGx1cyBydXRydW0gdGVsbHVzLgoKAFJpc3VzIHNlZCB2dWxwdXRhdGUgb2RpbyB1dCBlbmlt

cGVsbGVudGVzcXVlLgoKAEVyYXQgcGVsbGVudGVzcXVlIGFkaXBpc2NpbmcgY29tbW9kbyBlbGl0

$IIVLW,2354.94,N,2338.555,N*7F
YW0gYWMgdG9ydG9yIHZpdGFlLgoKAEludGVyZHVtIHZlbGl0IGxhb3JlZXQgaWQgZG9uZWMgdWx0

IGxlbyB2ZWwgZnJpbmdpbGxhIGVzdCB1bGxhbWNvcnBlciBlZ2V0LgoKTG9ib3J0aXMgbWF0dGlz

$IIVHW,,T,31.0,M,5.6,N,10.4,K*7F
ZXQgZmVsaXMgZWdldCBudW5jIGxvYm9ydGlzLgoKAEVuaW0gbmVjIGR1aSBudW5jIG1hdHRpcyBl

IGluIGVnZXN0YXMgZXJhdC4KCgBGcmluZ2lsbGEgdXQgbW9yYmkgdGluY2lkdW50IGF1Z3VlIGlu

$GPBOD,,T,,M,,*47
IHZ1bHB1dGF0ZSBtaSBzaXQgYW1ldCBtYXVyaXMuCgoAQ29uZGltZW50dW0gdml0YWUgc2FwaWVu

CgoAU2VtcGVyIGVnZXQgZHVpcyBhdCB0ZWxsdXMgYXQuCgoAQ29udmFsbGlzIGEgY3JhcyBzZW1w

$IIHDG,31.0,0,E,0.0,E*65
IGluLgoKTnVuYyBpZCBjdXJzdXMgbWV0dXMgYWxpcXVhbSBlbGVpZmVuZCBtaS4KCgBQb3N1ZXJl

bmVjIGFjIG9kaW8uCgoARW5pbSBldSB0dXJwaXMgZWdlc3RhcyBwcmV0aXVtIGFlbmVhbiBwaGFy

$GPRTE,1,1,c,0*07
YWUuCgoATHVjdHVzIHZlbmVuYXRpcyBsZWN0dXMgbWFnbmEgZnJpbmdpbGxhIHVybmEgcG9ydHRp

bW9kbyBvZGlvIGFlbmVhbiBzZWQgYWRpcGlzY2luZyBkaWFtIGRvbmVjLgoKAFRlbXB1cyBxdWFt

$IIDPT,15.2,0.4,100.0*71
cyBvcm5hcmUgc3VzcGVuZGlzc2Ugc2VkIG5pc2kgbGFjdXMgc2VkLgoKAEFtZXQganVzdG8gZG9u

dGVyZHVtIHZlbGl0IGV1aXNtb2QuCgoAQ3Vyc3VzIGV1aXNtb2QgcXVpcyB2aXZlcnJhIG5pYmgg

!AIVDM,1,1,,B,13M40b00000mTvTQ<INoOS:f059H,0*16
aXBzdW0gc3VzcGVuZGlzc2UgdWx0cmljZXMgZ3JhdmlkYSBkaWN0dW0gZnVzY2UgdXQuCgoATHVj

b3IgbmVjLgoKAEhhYml0YXNzZSBwbGF0ZWEgZGljdHVtc3QgcXVpc3F1ZSBzYWdpdHRpcyBwdXJ1

!AIVDO,1,1,,,B3uBrjP0<@=KlE8BoedFcwd5sP06,0*4A
biB2ZWwgZWxpdCBzY2VsZXJpc3F1ZSBtYXVyaXMgcGVsbGVudGVzcXVlLgoKAFF1aXNxdWUgbm9u

ZWFuIHNlZCBhZGlwaXNjaW5nIGRpYW0gZG9uZWMgYWRpcGlzY2luZyB0cmlzdGlxdWUgcmlzdXMg

!AIVDM,1,1,,A,402R3dAuur9FH0n7A8QIf9i000S:,0*76
ZSBjb252YWxsaXMgYSBjcmFzIHNlbXBlciBhdWN0b3IgbmVxdWUuCgoARXRpYW0gZGlnbmlzc2lt

ciBtYXR0aXMgbnVuYyBzZWQuCgoATmliaCBzaXQgYW1ldCBjb21tb2RvIG51bGxhLgoKAE1vcmJp

!AIVDM,1,1,,A,13v5NH001C0mDR>Q9BnC6RRj0D0n,0*17
IGFkaXBpc2NpbmcuCgoATnVsbGEgYXQgdm9sdXRwYXQgZGlhbSB1dCB2ZW5lbmF0aXMgdGVsbHVz

bmVjIGZldWdpYXQgaW4uCgoAUHJldGl1bSBxdWFtIHZ1bHB1dGF0ZSBkaWduaXNzaW0gc3VzcGVu

!AIVDM,1,1,,A,13u=gHPqkrPlvq2Q8olo35`h0`>j,0*7D
IGRvbG9yLgoKAFRvcnRvciBkaWduaXNzaW0gY29udmFsbGlzIGFlbmVhbiBldCB0b3J0b3IgYXQg

YWxlc3VhZGEgcHJvaW4uCgoASnVzdG8gZWdldCBtYWduYSBmZXJtZW50dW0gaWFjdWxpcyBldSBu

$IIRMC,092224,A,5759.112,N,01144.362,E,5.3,32.7,,0.0,E,A*38
LgoKAFR1cnBpcyBudW5jIGVnZXQgbG9yZW0gZG9sb3Igc2VkLgoKAEluIGZlcm1lbnR1bSBldCBz

IHVsbGFtY29ycGVyIHNpdCBhbWV0IHJpc3VzLgoKVXJuYSBudW5jIGlkIGN1cnN1cyBtZXR1cyBh

$IIRMA,A,5759.112,N,01144.362,E,,,5.3,32.7,0.0,E,A*35
bGlzIG51bmMuCgoAUGFydHVyaWVudCBtb250ZXMgbmFzY2V0dXIgcmlkaWN1bHVzIG11cy4KCk1v

dCBvcm5hcmUgbGVjdHVzIHNpdC4KCgBMZWN0dXMgcHJvaW4gbmliaCBuaXNsIGNvbmRpbWVudHVt

$IIMTW,16.8,C*1C
IGdyYXZpZGEgY3VtLgoKAEVuaW0gbG9ib3J0aXMgc2NlbGVyaXNxdWUgZmVybWVudHVtIGR1aSBm

aWRhIGN1bSBzb2NpaXMgbmF0b3F1ZS4KCgBBZW5lYW4gdmVsIGVsaXQgc2NlbGVyaXNxdWUgbWF1

$IIVLW,2354.94,N,2338.556,N*7C
Y3Jhcy4KCgBBbWV0IGp1c3RvIGRvbmVjIGVuaW0gZGlhbS4KCgBPZGlvIHRlbXBvciBvcmNpIGRh

YSB2aXRhZS4KCgBJcHN1bSBkb2xvciBzaXQgYW1ldCBjb25zZWN0ZXR1ciBhZGlwaXNjaW5nIGVs

$IIVHW,,T,31.0,M,5.3,N,9.9,K*4F
IHZpdGFlIHRlbXB1cyBxdWFtIHBlbGxlbnRlc3F1ZS4KCgBMb2JvcnRpcyBmZXVnaWF0IHZpdmFt

IGluIG9ybmFyZSBxdWFtIHZpdmVycmEgb3JjaS4KCgBOZXR1cyBldCBtYWxlc3VhZGEgZmFtZXMg

$IIHDG,30.0,0,E,0.0,E*64
ciBtYXR0aXMgbnVuYyBzZWQuCgoATmliaCBzaXQgYW1ldCBjb21tb2RvIG51bGxhLgoKAE1vcmJp

c2VkIGRvIGVpdXNtb2QgdGVtcG9yIGluY2lkaWR1bnQgdXQgbGFib3JlIGV0IGRvbG9yZSBtYWdu

$IIDPT,15.2,0.4,100.0*71
YSBlcmF0IG5hbSBhdCBsZWN0dXMgdXJuYSBkdWlzLgoKAEV0IGxpZ3VsYSB1bGxhbWNvcnBlciBt

IHNhcGllbiBwZWxsZW50ZXNxdWUgaGFiaXRhbnQgbW9yYmkgdHJpc3RpcXVlIHNlbmVjdHVzLgoK

$IIRMC,092224,A,5759.112,N,01144.363,E,5.3,32.7,,0.0,E,A*39
IGNvbmd1ZSBxdWlzcXVlIGVnZXN0YXMgZGlhbSBpbi4KCgBFdSBmZXVnaWF0IHByZXRpdW0gbmli

IHZpdGFlLgoKAEVsZWlmZW5kIGRvbmVjIHByZXRpdW0gdnVscHV0YXRlIHNhcGllbiBuZWMgc2Fn

$IIRMA,A,5759.112,N,01144.363,E,,,5.3,32.7,0.0,E,A*34
ZW8gaW4gdml0YWUuCgoAT2RpbyBmYWNpbGlzaXMgbWF1cmlzIHNpdCBhbWV0IG1hc3NhIHZpdGFl

dHBhdCBzZWQgY3JhcyBvcm5hcmUgYXJjdS4KCgBNb3JiaSBub24gYXJjdSByaXN1cyBxdWlzIHZh

$IIMTW,16.8,C*1C
bmVjIGZldWdpYXQgaW4uCgoAUHJldGl1bSBxdWFtIHZ1bHB1dGF0ZSBkaWduaXNzaW0gc3VzcGVu

ZW1lbnR1bSBzYWdpdHRpcyB2aXRhZS4KCgBMaWJlcm8gbnVuYyBjb25zZXF1YXQgaW50ZXJkdW0g

$IIVLW,2354.942,N,2338.558,N*40
YmVybyBudW5jIGNvbnNlcXVhdCBpbnRlcmR1bSB2YXJpdXMuCgoARXQgbWFsZXN1YWRhIGZhbWVz

dCBuZXR1cyBldCBtYWxlc3VhZGEgZmFtZXMgYWMgdHVycGlzIGVnZXN0YXMuCgoASW50ZWdlciBx

$GPRMC,092226,A,5759.114,N,01144.364,E,005.3,033.6,200715,000.0,E*71
biBhcmN1IHJpc3VzIHF1aXMuCgoAUGhhc2VsbHVzIHZlc3RpYnVsdW0gbG9yZW0gc2VkIHJpc3Vz

bGlxdWFtIGVsZWlmZW5kIG1pLgoKAE1hZ25hIGZyaW5naWxsYSB1cm5hIHBvcnR0aXRvciByaG9u

$GPRMB,A,,,,,,,,,,,,V*71
dHJpY2VzIG5lcXVlIG9ybmFyZSBhZW5lYW4gZXVpc21vZCBlbGVtZW50dW0gbmlzaS4KCgBTZWQg

ZW0gbnVsbGEgcGhhcmV0cmEgZGlhbSBzaXQgYW1ldC4KCgBGZXVnaWF0IHNlZCBsZWN0dXMgdmVz

$GPGGA,092226,5759.114,N,01144.365,E,1,06,1.9,3.0,M,39.4,M,,*46
cGllbiBuZWMgc2FnaXR0aXMgYWxpcXVhbSBtYWxlc3VhZGEgYmliZW5kdW0gYXJjdSB2aXRhZS4K

aCBpcHN1bSBjb25zZXF1YXQgbmlzbCB2ZWwuCgoARXVpc21vZCBxdWlzIHZpdmVycmEgbmliaCBj

$IIVHW,,T,31.0,M,5.4,N,10.0,K*79
ZGEgcHJvaW4gbGliZXJvLgoKAEV1aXNtb2QgcXVpcyB2aXZlcnJhIG5pYmggY3JhcyBwdWx2aW5h

dmVuZW5hdGlzIGxlY3R1cyBtYWduYSBmcmluZ2lsbGEgdXJuYSBwb3J0dGl0b3IgcmhvbmN1cy4K

$IIHDG,31.0,0,E,0.0,E*65
cmV0cmEgbWFzc2EgbWFzc2EuCgpEaWFtIGluIGFyY3UgY3Vyc3VzIGV1aXNtb2QgcXVpcyB2aXZl

QWVuZWFuIHNlZCBhZGlwaXNjaW5nIGRpYW0gZG9uZWMgYWRpcGlzY2luZyB0cmlzdGlxdWUgcmlz

!AIVDO,1,1,,,B3uBrjP0<P=KlM`BofDH;wdUsP06,0*1F
dXJhYml0dXIgdml0YWUgbnVuYyBzZWQgdmVsaXQgZGlnbmlzc2ltLgoKAEV0IHRvcnRvciBhdCBy

c3VtIGZhdWNpYnVzIHZpdGFlIGFsaXF1ZXQgbmVjIHVsbGFtY29ycGVyIHNpdCBhbWV0IHJpc3Vz

$IIDPT,15.6,0.4,100.0*75
bmltIGJsYW5kaXQgdm9sdXRwYXQgbWFlY2VuYXMgdm9sdXRwYXQgYmxhbmRpdCBhbGlxdWFtIGV0

CgBWZXN0aWJ1bHVtIHNlZCBhcmN1IG5vbiBvZGlvIGV1aXNtb2QgbGFjaW5pYSBhdCBxdWlzLgoK

$GPGSA,A,3,02,,12,14,,24,25,32,,,,,2.7,1.9,2.0*39
dWUgc29kYWxlcyB1dCBldGlhbSBzaXQgYW1ldCBuaXNsIHB1cnVzLgoKAEFyY3Ugb2RpbyB1dCBz

dGFzLgoKAFV0IGRpYW0gcXVhbSBudWxsYSBwb3J0dGl0b3IuCgoATWFzc2EgdWx0cmljaWVzIG1p

$GPGSV,2,1,08,02,21,120,47,06,29,080,00,12,86,124,54,14,41,275,45*7C
aWFtIGRpZ25pc3NpbS4KCgBQZWxsZW50ZXNxdWUgaGFiaXRhbnQgbW9yYmkgdHJpc3RpcXVlIHNl

dXMgdmVzdGlidWx1bSBzZWQgYXJjdSBub24gb2Rpby4KCgBNb3JiaSB0ZW1wdXMgaWFjdWxpcyB1

